{
"type": "FeatureCollection",
"features": [
{ "type": "Feature", "properties": { "OBJECTID": "1", "HYPERLINK": "NA", "DESCRIPTIO": "", "POSTALCODE": "469546", "NAME": "Simpang De Bedok Boarding House", "ADDRESS": "357A\/359A Bedok Road", "INC_CRC": "A80698B16DF9E633", "FMEL_UPD_D": "07\/24\/2014", "X_ADDR": "4.06571306000e+004", "Y_ADDR": "3.48674898000e+004" }, "geometry": { "type": "Point", "coordinates": [ 40657.130700, 34867.489800 ] } }
,
{ "type": "Feature", "properties": { "OBJECTID": "2", "HYPERLINK": "NA", "DESCRIPTIO": "", "POSTALCODE": "437761", "NAME": "Sing Hoe Hotel", "ADDRESS": "759 Mountbatten Road", "INC_CRC": "B11F4ABD85C02DBA", "FMEL_UPD_D": "07\/24\/2014", "X_ADDR": "3.44697764000e+004", "Y_ADDR": "3.14571688000e+004" }, "geometry": { "type": "Point", "coordinates": [ 34469.776500, 31457.168800 ] } }
,
{ "type": "Feature", "properties": { "OBJECTID": "3", "HYPERLINK": "www.marriotthotels.com", "DESCRIPTIO": "", "POSTALCODE": "238865", "NAME": "Singapore Marriott Hotel", "ADDRESS": "320 Orchard Road, Tang Plaza", "INC_CRC": "5B8423746A03122E", "FMEL_UPD_D": "07\/24\/2014", "X_ADDR": "2.79508268000e+004", "Y_ADDR": "3.19378380000e+004" }, "geometry": { "type": "Point", "coordinates": [ 27950.826900, 31937.838100 ] } }
,
{ "type": "Feature", "properties": { "OBJECTID": "4", "HYPERLINK": "", "DESCRIPTIO": "", "POSTALCODE": "209180", "NAME": "Sleep Delight", "ADDRESS": "9A & 9B Hamilton Road", "INC_CRC": "53E739781D342C06", "FMEL_UPD_D": "07\/24\/2014", "X_ADDR": "3.10510544000e+004", "Y_ADDR": "3.26357893000e+004" }, "geometry": { "type": "Point", "coordinates": [ 31051.054500, 32635.789300 ] } }
,
{ "type": "Feature", "properties": { "OBJECTID": "5", "HYPERLINK": "www.sleepysams.com", "DESCRIPTIO": "", "POSTALCODE": "199471", "NAME": "Sleepy Kiwi", "ADDRESS": "55 Bussorah Street", "INC_CRC": "A6D94695BCE4977C", "FMEL_UPD_D": "07\/24\/2014", "X_ADDR": "3.08995681000e+004", "Y_ADDR": "3.15522017000e+004" }, "geometry": { "type": "Point", "coordinates": [ 30899.568200, 31552.201800 ] } }
,
{ "type": "Feature", "properties": { "OBJECTID": "6", "HYPERLINK": "NA", "DESCRIPTIO": "", "POSTALCODE": "259803", "NAME": "Sloane Court Hotel", "ADDRESS": "17 Balmoral Road", "INC_CRC": "C0FC85FE4C83A816", "FMEL_UPD_D": "07\/24\/2014", "X_ADDR": "2.78762231000e+004", "Y_ADDR": "3.31082993000e+004" }, "geometry": { "type": "Point", "coordinates": [ 27876.223200, 33108.299300 ] } }
,
{ "type": "Feature", "properties": { "OBJECTID": "7", "HYPERLINK": "www.societyhotel.com.sg", "DESCRIPTIO": "", "POSTALCODE": "208934", "NAME": "Society Backpackers' Hotel", "ADDRESS": "259A Jalan Besar", "INC_CRC": "871933FB61DA096B", "FMEL_UPD_D": "07\/24\/2014", "X_ADDR": "3.07778026000e+004", "Y_ADDR": "3.25103148000e+004" }, "geometry": { "type": "Point", "coordinates": [ 30777.802700, 32510.314900 ] } }
,
{ "type": "Feature", "properties": { "OBJECTID": "8", "HYPERLINK": "www.sofitel.com\/h8655", "DESCRIPTIO": "", "POSTALCODE": "068876", "NAME": "Sofitel So Singapore", "ADDRESS": "35 Robinson Road", "INC_CRC": "13F6F696D95F3281", "FMEL_UPD_D": "07\/24\/2014", "X_ADDR": "2.98180883000e+004", "Y_ADDR": "2.91527946000e+004" }, "geometry": { "type": "Point", "coordinates": [ 29818.088400, 29152.794600 ] } }
,
{ "type": "Feature", "properties": { "OBJECTID": "9", "HYPERLINK": "www.mackenziesg@soluxeinn.com", "DESCRIPTIO": "", "POSTALCODE": "228677", "NAME": "Soluxe Inn", "ADDRESS": "15 Mackenzie Road", "INC_CRC": "78D1BE314E84E997", "FMEL_UPD_D": "07\/24\/2014", "X_ADDR": "2.98340826000e+004", "Y_ADDR": "3.18570547000e+004" }, "geometry": { "type": "Point", "coordinates": [ 29834.082600, 31857.054700 ] } }
,
{ "type": "Feature", "properties": { "OBJECTID": "10", "HYPERLINK": "www.seahotel.com.sg", "DESCRIPTIO": "", "POSTALCODE": "187965", "NAME": "South East Asia Hotel", "ADDRESS": "190 Waterloo Street", "INC_CRC": "A68800177F3CC3E3", "FMEL_UPD_D": "07\/24\/2014", "X_ADDR": "3.02054186000e+004", "Y_ADDR": "3.14930945000e+004" }, "geometry": { "type": "Point", "coordinates": [ 30205.418600, 31493.094600 ] } }
,
{ "type": "Feature", "properties": { "OBJECTID": "11", "HYPERLINK": "www.stregis.com\/singapore", "DESCRIPTIO": "", "POSTALCODE": "247911", "NAME": "St. Regis Hotel Singapore", "ADDRESS": "29 Tanglin Road", "INC_CRC": "0C280E89240D01AF", "FMEL_UPD_D": "07\/24\/2014", "X_ADDR": "2.71914611000e+004", "Y_ADDR": "3.19989515000e+004" }, "geometry": { "type": "Point", "coordinates": [ 27191.461100, 31998.951500 ] } }
,
{ "type": "Feature", "properties": { "OBJECTID": "12", "HYPERLINK": "www.strandhotel.com.sg", "DESCRIPTIO": "", "POSTALCODE": "189619", "NAME": "Strand Hotel", "ADDRESS": "25 Bencoolen Street", "INC_CRC": "2C115E6021300A3B", "FMEL_UPD_D": "07\/24\/2014", "X_ADDR": "2.98273611000e+004", "Y_ADDR": "3.12240262000e+004" }, "geometry": { "type": "Point", "coordinates": [ 29827.361100, 31224.026200 ] } }
,
{ "type": "Feature", "properties": { "OBJECTID": "13", "HYPERLINK": "www.studiomhotel.com", "DESCRIPTIO": "", "POSTALCODE": "238910", "NAME": "Studio M Hotel", "ADDRESS": "3 Nanson Road", "INC_CRC": "1AE68042E910CCFD", "FMEL_UPD_D": "07\/24\/2014", "X_ADDR": "2.86407732000e+004", "Y_ADDR": "3.03531432000e+004" }, "geometry": { "type": "Point", "coordinates": [ 28640.773300, 30353.143200 ] } }
,
{ "type": "Feature", "properties": { "OBJECTID": "14", "HYPERLINK": "www.summerviewhotel.com.sg", "DESCRIPTIO": "", "POSTALCODE": "189642", "NAME": "Summer View Hotel", "ADDRESS": "173 Bencoolen Street", "INC_CRC": "EB6047FB484D47B0", "FMEL_UPD_D": "07\/24\/2014", "X_ADDR": "3.01055081000e+004", "Y_ADDR": "3.15563829000e+004" }, "geometry": { "type": "Point", "coordinates": [ 30105.508100, 31556.383000 ] } }
,
{ "type": "Feature", "properties": { "OBJECTID": "15", "HYPERLINK": "NA", "DESCRIPTIO": "", "POSTALCODE": "399041", "NAME": "Super 8 Hotel", "ADDRESS": "8 Lorong 10 Geylang", "INC_CRC": "1C5FA1A5B33F25E7", "FMEL_UPD_D": "07\/24\/2014", "X_ADDR": "3.29125400000e+004", "Y_ADDR": "3.26540634000e+004" }, "geometry": { "type": "Point", "coordinates": [ 32912.540100, 32654.063400 ] } }
,
{ "type": "Feature", "properties": { "OBJECTID": "16", "HYPERLINK": "", "DESCRIPTIO": "", "POSTALCODE": "199150", "NAME": "Superb Hostel", "ADDRESS": "2 Jalan Pinang", "INC_CRC": "33BA811D1E03AFF5", "FMEL_UPD_D": "07\/24\/2014", "X_ADDR": "3.08058273000e+004", "Y_ADDR": "3.16805463000e+004" }, "geometry": { "type": "Point", "coordinates": [ 30805.827400, 31680.546400 ] } }
,
{ "type": "Feature", "properties": { "OBJECTID": "17", "HYPERLINK": "www.swissotel.com\/singapore-merchantcourt", "DESCRIPTIO": "", "POSTALCODE": "058281", "NAME": "Swissotel Merchant Court,Singapore", "ADDRESS": "20 Merchant Road", "INC_CRC": "6A00260F7674CEA2", "FMEL_UPD_D": "07\/24\/2014", "X_ADDR": "2.93770911000e+004", "Y_ADDR": "3.00701275000e+004" }, "geometry": { "type": "Point", "coordinates": [ 29377.091200, 30070.127600 ] } }
,
{ "type": "Feature", "properties": { "OBJECTID": "18", "HYPERLINK": "www.swissotel.com", "DESCRIPTIO": "", "POSTALCODE": "178882", "NAME": "Swissotel The Stamford, Singapore", "ADDRESS": "2 Stamford Road", "INC_CRC": "280B0588905B3797", "FMEL_UPD_D": "07\/24\/2014", "X_ADDR": "3.02269634000e+004", "Y_ADDR": "3.06292828000e+004" }, "geometry": { "type": "Point", "coordinates": [ 30226.963500, 30629.282800 ] } }
,
{ "type": "Feature", "properties": { "OBJECTID": "19", "HYPERLINK": "NA", "DESCRIPTIO": "", "POSTALCODE": "208538", "NAME": "Tai Hoe Hotel", "ADDRESS": "163 Kitchener Road", "INC_CRC": "303ABAFF7F5AC0A0", "FMEL_UPD_D": "07\/24\/2014", "X_ADDR": "3.05871098000e+004", "Y_ADDR": "3.25080857000e+004" }, "geometry": { "type": "Point", "coordinates": [ 30587.109900, 32508.085800 ] } }
,
{ "type": "Feature", "properties": { "OBJECTID": "20", "HYPERLINK": "NA", "DESCRIPTIO": "", "POSTALCODE": "399120", "NAME": "Taipei Hotel (2000)", "ADDRESS": "60,60B, 62A\/B\/C & 64A\/B\/C Lorong 8 Geylang", "INC_CRC": "21C3761B8D57703F", "FMEL_UPD_D": "07\/24\/2014", "X_ADDR": "3.28704192000e+004", "Y_ADDR": "3.24701471000e+004" }, "geometry": { "type": "Point", "coordinates": [ 32870.419200, 32470.147200 ] } }
,
{ "type": "Feature", "properties": { "OBJECTID": "21", "HYPERLINK": "NA", "DESCRIPTIO": "", "POSTALCODE": "398913", "NAME": "The Amazing Inn", "ADDRESS": "1 Lorong 14 Geylang", "INC_CRC": "04ABCE1FCDC9539F", "FMEL_UPD_D": "07\/24\/2014", "X_ADDR": "3.31034480000e+004", "Y_ADDR": "3.27212625000e+004" }, "geometry": { "type": "Point", "coordinates": [ 33103.448100, 32721.262600 ] } }
,
{ "type": "Feature", "properties": { "OBJECTID": "22", "HYPERLINK": "www.theardenneshotel.com.sg", "DESCRIPTIO": "", "POSTALCODE": "199323", "NAME": "The Ardennes Hotel", "ADDRESS": "11 Jalan Klapa", "INC_CRC": "7FDC458E6705885C", "FMEL_UPD_D": "07\/24\/2014", "X_ADDR": "3.09345051000e+004", "Y_ADDR": "3.18383535000e+004" }, "geometry": { "type": "Point", "coordinates": [ 30934.505200, 31838.353600 ] } }
,
{ "type": "Feature", "properties": { "OBJECTID": "23", "HYPERLINK": "www.claremont.com.sg", "DESCRIPTIO": "", "POSTALCODE": "218224", "NAME": "The Claremont", "ADDRESS": "301 Serangoon Road", "INC_CRC": "D3CD7BCDA4099ED3", "FMEL_UPD_D": "07\/24\/2014", "X_ADDR": "3.03862051000e+004", "Y_ADDR": "3.26297068000e+004" }, "geometry": { "type": "Point", "coordinates": [ 30386.205200, 32629.706800 ] } }
,
{ "type": "Feature", "properties": { "OBJECTID": "24", "HYPERLINK": "www.theclub.com.sg", "DESCRIPTIO": "", "POSTALCODE": "069708", "NAME": "The Club", "ADDRESS": "28 Ann Siang Road", "INC_CRC": "079793C2AA587209", "FMEL_UPD_D": "07\/24\/2014", "X_ADDR": "2.93849084000e+004", "Y_ADDR": "2.92458279000e+004" }, "geometry": { "type": "Point", "coordinates": [ 29384.908500, 29245.828000 ] } }
,
{ "type": "Feature", "properties": { "OBJECTID": "25", "HYPERLINK": "www.silosobeachresort.com", "DESCRIPTIO": "", "POSTALCODE": "099538", "NAME": "Siloso Beach Resort", "ADDRESS": "51 Imbiah Walk", "INC_CRC": "55D3FC6D218CA09F", "FMEL_UPD_D": "07\/24\/2014", "X_ADDR": "2.59056711000e+004", "Y_ADDR": "2.63956466000e+004" }, "geometry": { "type": "Point", "coordinates": [ 25905.671200, 26395.646600 ] } }
,
{ "type": "Feature", "properties": { "OBJECTID": "26", "HYPERLINK": "www.thedaulat.com", "DESCRIPTIO": "", "POSTALCODE": "208413", "NAME": "The Daulat", "ADDRESS": "16 Madras Street", "INC_CRC": "6C1DEB668B056436", "FMEL_UPD_D": "07\/24\/2014", "X_ADDR": "3.01742268000e+004", "Y_ADDR": "3.18982927000e+004" }, "geometry": { "type": "Point", "coordinates": [ 30174.226800, 31898.292800 ] } }
,
{ "type": "Feature", "properties": { "OBJECTID": "27", "HYPERLINK": "www.bayhotelsingapore.com", "DESCRIPTIO": "", "POSTALCODE": "098828", "NAME": "Bay Hotel Singapore", "ADDRESS": "50 Telok Blangah Road", "INC_CRC": "4A66DBCD5FB2194A", "FMEL_UPD_D": "07\/24\/2014", "X_ADDR": "2.69397884000e+004", "Y_ADDR": "2.76506132000e+004" }, "geometry": { "type": "Point", "coordinates": [ 26939.788400, 27650.613300 ] } }
,
{ "type": "Feature", "properties": { "OBJECTID": "28", "HYPERLINK": "www.bayviewhotels.com", "DESCRIPTIO": "", "POSTALCODE": "189621", "NAME": "Bayview Hotel Singapore", "ADDRESS": "30 Bencoolen Street", "INC_CRC": "89B22571EE944F96", "FMEL_UPD_D": "07\/24\/2014", "X_ADDR": "2.99017596000e+004", "Y_ADDR": "3.12066734000e+004" }, "geometry": { "type": "Point", "coordinates": [ 29901.759600, 31206.673500 ] } }
,
{ "type": "Feature", "properties": { "OBJECTID": "29", "HYPERLINK": "www.beachhotel.com.sg", "DESCRIPTIO": "", "POSTALCODE": "189699", "NAME": "Beach Hotel", "ADDRESS": "95 Beach Road", "INC_CRC": "6BD6954C5FEE37AA", "FMEL_UPD_D": "07\/24\/2014", "X_ADDR": "3.06037927000e+004", "Y_ADDR": "3.10988728000e+004" }, "geometry": { "type": "Point", "coordinates": [ 30603.792700, 31098.872900 ] } }
,
{ "type": "Feature", "properties": { "OBJECTID": "30", "HYPERLINK": "NA", "DESCRIPTIO": "", "POSTALCODE": "098135", "NAME": "Beach Villas", "ADDRESS": "20 Sentosa Gateway", "INC_CRC": "AA8F8D2899C8C25F", "FMEL_UPD_D": "07\/24\/2014", "X_ADDR": "2.61335389000e+004", "Y_ADDR": "2.68656394000e+004" }, "geometry": { "type": "Point", "coordinates": [ 26133.539000, 26865.639500 ] } }
,
{ "type": "Feature", "properties": { "OBJECTID": "31", "HYPERLINK": "www.abearygoodhostel.com", "DESCRIPTIO": "", "POSTALCODE": "058332", "NAME": "Beary Best! Hostel", "ADDRESS": "16 & 18 Upper Cross Street", "INC_CRC": "CE179797DA163E22", "FMEL_UPD_D": "07\/24\/2014", "X_ADDR": "2.93424367000e+004", "Y_ADDR": "2.95866432000e+004" }, "geometry": { "type": "Point", "coordinates": [ 29342.436700, 29586.643200 ] } }
,
{ "type": "Feature", "properties": { "OBJECTID": "32", "HYPERLINK": "www.betelbox.com", "DESCRIPTIO": "", "POSTALCODE": "427471", "NAME": "Betel Box Backpackers Hostel", "ADDRESS": "200 Joo Chiat Road", "INC_CRC": "D642BAFF537F06C3", "FMEL_UPD_D": "07\/24\/2014", "X_ADDR": "3.54429713000e+004", "Y_ADDR": "3.27227137000e+004" }, "geometry": { "type": "Point", "coordinates": [ 35442.971300, 32722.713700 ] } }
,
{ "type": "Feature", "properties": { "OBJECTID": "33", "HYPERLINK": "www.bighotel.com", "DESCRIPTIO": "", "POSTALCODE": "188980", "NAME": "Big Hotel", "ADDRESS": "200 Middle Road", "INC_CRC": "873047EEFD9EC489", "FMEL_UPD_D": "07\/24\/2014", "X_ADDR": "3.00241486000e+004", "Y_ADDR": "3.14742522000e+004" }, "geometry": { "type": "Point", "coordinates": [ 30024.148600, 31474.252200 ] } }
,
{ "type": "Feature", "properties": { "OBJECTID": "34", "HYPERLINK": "www.inn.com.sg", "DESCRIPTIO": "", "POSTALCODE": "207564", "NAME": "Blanc Inn", "ADDRESS": "151 Tyrwhitt Road", "INC_CRC": "8B6BF63E1DF046B1", "FMEL_UPD_D": "07\/24\/2014", "X_ADDR": "3.09863326000e+004", "Y_ADDR": "3.26788150000e+004" }, "geometry": { "type": "Point", "coordinates": [ 30986.332600, 32678.815100 ] } }
,
{ "type": "Feature", "properties": { "OBJECTID": "35", "HYPERLINK": "www.blisshotel.com.sg", "DESCRIPTIO": "", "POSTALCODE": "058353", "NAME": "Bliss Hotel Singapore", "ADDRESS": "62 Upper Cross Street", "INC_CRC": "B943878E68E3623B", "FMEL_UPD_D": "07\/24\/2014", "X_ADDR": "2.92226078000e+004", "Y_ADDR": "2.96543345000e+004" }, "geometry": { "type": "Point", "coordinates": [ 29222.607800, 29654.334600 ] } }
,
{ "type": "Feature", "properties": { "OBJECTID": "36", "HYPERLINK": "www.blissfulloft.com", "DESCRIPTIO": "", "POSTALCODE": "059672", "NAME": "Blissful Loft", "ADDRESS": "33B Hongkong Street", "INC_CRC": "97A0F43F5AB54659", "FMEL_UPD_D": "07\/24\/2014", "X_ADDR": "2.95351665000e+004", "Y_ADDR": "2.99811483000e+004" }, "geometry": { "type": "Point", "coordinates": [ 29535.166500, 29981.148400 ] } }
,
{ "type": "Feature", "properties": { "OBJECTID": "37", "HYPERLINK": "NA", "DESCRIPTIO": "", "POSTALCODE": "388575", "NAME": "Bright Star Hotel", "ADDRESS": "20 Lorong 17 Geylang", "INC_CRC": "C9F0D364E0F03103", "FMEL_UPD_D": "07\/24\/2014", "X_ADDR": "3.30691688000e+004", "Y_ADDR": "3.28674940000e+004" }, "geometry": { "type": "Point", "coordinates": [ 33069.168800, 32867.494000 ] } }
,
{ "type": "Feature", "properties": { "OBJECTID": "38", "HYPERLINK": "", "DESCRIPTIO": "", "POSTALCODE": "218067", "NAME": "Broadway Hotel", "ADDRESS": "195 Serangoon Road", "INC_CRC": "B5129C2A4E60B5EC", "FMEL_UPD_D": "07\/24\/2014", "X_ADDR": "3.02153424000e+004", "Y_ADDR": "3.23878950000e+004" }, "geometry": { "type": "Point", "coordinates": [ 30215.342400, 32387.895100 ] } }
,
{ "type": "Feature", "properties": { "OBJECTID": "39", "HYPERLINK": "", "DESCRIPTIO": "", "POSTALCODE": "398877", "NAME": "Budget Inn", "ADDRESS": "41 Lorong 16 Geylang", "INC_CRC": "4886F00B1CF49B4C", "FMEL_UPD_D": "07\/24\/2014", "X_ADDR": "3.32179227000e+004", "Y_ADDR": "3.26470991000e+004" }, "geometry": { "type": "Point", "coordinates": [ 33217.922700, 32647.099200 ] } }
,
{ "type": "Feature", "properties": { "OBJECTID": "40", "HYPERLINK": "", "DESCRIPTIO": "", "POSTALCODE": "398793", "NAME": "Budgetone Hotel", "ADDRESS": "10 Lorong 18 Geylang", "INC_CRC": "874762790BD30E30", "FMEL_UPD_D": "07\/24\/2014", "X_ADDR": "3.32423400000e+004", "Y_ADDR": "3.27238802000e+004" }, "geometry": { "type": "Point", "coordinates": [ 33242.340100, 32723.880200 ] } }
,
{ "type": "Feature", "properties": { "OBJECTID": "41", "HYPERLINK": "www.bunchostel.com", "DESCRIPTIO": "", "POSTALCODE": "207372", "NAME": "Bunc@Radius Hostel", "ADDRESS": "15 Upper Weld Road", "INC_CRC": "9DD184225B5A2E10", "FMEL_UPD_D": "07\/24\/2014", "X_ADDR": "3.03951988000e+004", "Y_ADDR": "3.19662445000e+004" }, "geometry": { "type": "Point", "coordinates": [ 30395.198800, 31966.244600 ] } }
,
{ "type": "Feature", "properties": { "OBJECTID": "42", "HYPERLINK": "www.bunchostel.com", "DESCRIPTIO": "", "POSTALCODE": "058670", "NAME": "Bunc@Radius Hostel on Clarke Quay", "ADDRESS": "36 South Bridge Road", "INC_CRC": "ADB7802AC1754FA0", "FMEL_UPD_D": "07\/24\/2014", "X_ADDR": "2.96895837000e+004", "Y_ADDR": "3.00550327000e+004" }, "geometry": { "type": "Point", "coordinates": [ 29689.583700, 30055.032700 ] } }
,
{ "type": "Feature", "properties": { "OBJECTID": "43", "HYPERLINK": "www.cameronhotel.com.sg", "DESCRIPTIO": "", "POSTALCODE": "486917", "NAME": "Cameron Hotel", "ADDRESS": "393F Upper Changi Road", "INC_CRC": "891E7D5BF6B25130", "FMEL_UPD_D": "07\/24\/2014", "X_ADDR": "4.15389737000e+004", "Y_ADDR": "3.54360282000e+004" }, "geometry": { "type": "Point", "coordinates": [ 41538.973800, 35436.028200 ] } }
,
{ "type": "Feature", "properties": { "OBJECTID": "44", "HYPERLINK": "www.capellasingapore.com", "DESCRIPTIO": "", "POSTALCODE": "098297", "NAME": "Capella Hotel, Singapore", "ADDRESS": "1 The Knolls", "INC_CRC": "DF8586CF1D42E2FA", "FMEL_UPD_D": "07\/24\/2014", "X_ADDR": "2.70050001000e+004", "Y_ADDR": "2.57870044000e+004" }, "geometry": { "type": "Point", "coordinates": [ 27005.000200, 25787.004500 ] } }
,
{ "type": "Feature", "properties": { "OBJECTID": "45", "HYPERLINK": "singapore.caprifraser.com", "DESCRIPTIO": "", "POSTALCODE": "486037", "NAME": "Capri By Fraser Changi City, Singapore", "ADDRESS": "3 Changi Business Park Central 1 Changi City", "INC_CRC": "E601535C7DE0B3EF", "FMEL_UPD_D": "07\/24\/2014", "X_ADDR": "4.24971630000e+004", "Y_ADDR": "3.51622070000e+004" }, "geometry": { "type": "Point", "coordinates": [ 42497.163100, 35162.207000 ] } }
,
{ "type": "Feature", "properties": { "OBJECTID": "46", "HYPERLINK": "www.carltoncity.sg", "DESCRIPTIO": "", "POSTALCODE": "078862", "NAME": "Carlton City Hotel Singapore", "ADDRESS": "1 Gopeng Street", "INC_CRC": "70FDFCC13CE70713", "FMEL_UPD_D": "07\/24\/2014", "X_ADDR": "2.91552033000e+004", "Y_ADDR": "2.87145274000e+004" }, "geometry": { "type": "Point", "coordinates": [ 29155.203300, 28714.527500 ] } }
,
{ "type": "Feature", "properties": { "OBJECTID": "47", "HYPERLINK": "www.carltonhotel.sg", "DESCRIPTIO": "", "POSTALCODE": "189558", "NAME": "Carlton Hotel", "ADDRESS": "76 Bras Basah Road", "INC_CRC": "14EA3290B0B893A2", "FMEL_UPD_D": "07\/24\/2014", "X_ADDR": "3.01368278000e+004", "Y_ADDR": "3.09224892000e+004" }, "geometry": { "type": "Point", "coordinates": [ 30136.827800, 30922.489300 ] } }
,
{ "type": "Feature", "properties": { "OBJECTID": "48", "HYPERLINK": "", "DESCRIPTIO": "", "POSTALCODE": "427726", "NAME": "Champion Hotel", "ADDRESS": "60 Joo Chiat Road", "INC_CRC": "A49385CD632F882B", "FMEL_UPD_D": "07\/24\/2014", "X_ADDR": "3.52402545000e+004", "Y_ADDR": "3.30022158000e+004" }, "geometry": { "type": "Point", "coordinates": [ 35240.254600, 33002.215800 ] } }
,
{ "type": "Feature", "properties": { "OBJECTID": "49", "HYPERLINK": "www.changzianghotel.com", "DESCRIPTIO": "", "POSTALCODE": "388607", "NAME": "Chang Ziang Hotel", "ADDRESS": "15 Lorong 15 Geylang", "INC_CRC": "4D8575918515AC6B", "FMEL_UPD_D": "07\/24\/2014", "X_ADDR": "3.29781778000e+004", "Y_ADDR": "3.28285280000e+004" }, "geometry": { "type": "Point", "coordinates": [ 32978.177900, 32828.528000 ] } }
,
{ "type": "Feature", "properties": { "OBJECTID": "50", "HYPERLINK": "", "DESCRIPTIO": "", "POSTALCODE": "509866", "NAME": "Changi Cove", "ADDRESS": "351 Cranwell Road", "INC_CRC": "0E58442D9731C8F0", "FMEL_UPD_D": "07\/24\/2014", "X_ADDR": "4.38402095000e+004", "Y_ADDR": "4.11675761000e+004" }, "geometry": { "type": "Point", "coordinates": [ 43840.209600, 41167.576200 ] } }
,
{ "type": "Feature", "properties": { "OBJECTID": "51", "HYPERLINK": "", "DESCRIPTIO": "", "POSTALCODE": "209918", "NAME": "Checkers Backpackers Inn", "ADDRESS": "46, 48 & 50 Campbell Lane", "INC_CRC": "656E3F8A6F66DC35", "FMEL_UPD_D": "07\/24\/2014", "X_ADDR": "3.01444232000e+004", "Y_ADDR": "3.19313914000e+004" }, "geometry": { "type": "Point", "coordinates": [ 30144.423300, 31931.391400 ] } }
,
{ "type": "Feature", "properties": { "OBJECTID": "52", "HYPERLINK": "www.chinatownhotel.com", "DESCRIPTIO": "", "POSTALCODE": "088387", "NAME": "Chinatown Hotel", "ADDRESS": "12\/14\/16 Teck Lim Road", "INC_CRC": "1E2E96EEC6C770B1", "FMEL_UPD_D": "07\/24\/2014", "X_ADDR": "2.89652576000e+004", "Y_ADDR": "2.92032028000e+004" }, "geometry": { "type": "Point", "coordinates": [ 28965.257600, 29203.202800 ] } }
,
{ "type": "Feature", "properties": { "OBJECTID": "53", "HYPERLINK": "www.citybackpackers.com.sg", "DESCRIPTIO": "", "POSTALCODE": "059661", "NAME": "City Backpackers", "ADDRESS": "18\/18A\/18B\/18C Hongkong Street", "INC_CRC": "C4E437ACDEB8011E", "FMEL_UPD_D": "07\/24\/2014", "X_ADDR": "2.95540011000e+004", "Y_ADDR": "3.00243463000e+004" }, "geometry": { "type": "Point", "coordinates": [ 29554.001200, 30024.346300 ] } }
,
{ "type": "Feature", "properties": { "OBJECTID": "54", "HYPERLINK": "", "DESCRIPTIO": "", "POSTALCODE": "389120", "NAME": "CityBackpackers @ Kallang", "ADDRESS": "12A Lorong 1 Geylang", "INC_CRC": "B3606AEE6D571B09", "FMEL_UPD_D": "07\/24\/2014", "X_ADDR": "3.23676542000e+004", "Y_ADDR": "3.26045037000e+004" }, "geometry": { "type": "Point", "coordinates": [ 32367.654300, 32604.503800 ] } }
,
{ "type": "Feature", "properties": { "OBJECTID": "55", "HYPERLINK": "www.classiquehotel.com.sg", "DESCRIPTIO": "", "POSTALCODE": "208913", "NAME": "Classique Hotel", "ADDRESS": "240 Jalan Besar #01-01", "INC_CRC": "9C875D2F82D3B6A0", "FMEL_UPD_D": "07\/24\/2014", "X_ADDR": "3.07648607000e+004", "Y_ADDR": "3.24156703000e+004" }, "geometry": { "type": "Point", "coordinates": [ 30764.860700, 32415.670400 ] } }
,
{ "type": "Feature", "properties": { "OBJECTID": "56", "HYPERLINK": "www.concordehotel.com.sg", "DESCRIPTIO": "", "POSTALCODE": "238840", "NAME": "Concorde Hotel Singapore", "ADDRESS": "100 Orchard Road", "INC_CRC": "3E4E9558C62CF430", "FMEL_UPD_D": "07\/24\/2014", "X_ADDR": "2.89914404000e+004", "Y_ADDR": "3.14408820000e+004" }, "geometry": { "type": "Point", "coordinates": [ 28991.440500, 31440.882100 ] } }
,
{ "type": "Feature", "properties": { "OBJECTID": "57", "HYPERLINK": "singapore.conradmeetings.com", "DESCRIPTIO": "", "POSTALCODE": "038982", "NAME": "Conrad Centennial Singapore", "ADDRESS": "2 Temasek Boulevard", "INC_CRC": "B9742F68875DF798", "FMEL_UPD_D": "07\/24\/2014", "X_ADDR": "3.08330509000e+004", "Y_ADDR": "3.06569609000e+004" }, "geometry": { "type": "Point", "coordinates": [ 30833.050900, 30656.961000 ] } }
,
{ "type": "Feature", "properties": { "OBJECTID": "58", "HYPERLINK": "www.copthornekings.com.sg", "DESCRIPTIO": "", "POSTALCODE": "169632", "NAME": "Copthorne King's Hotel Singapore", "ADDRESS": "403 Havelock Road", "INC_CRC": "519184E822053E1F", "FMEL_UPD_D": "07\/24\/2014", "X_ADDR": "2.83699238000e+004", "Y_ADDR": "3.00747215000e+004" }, "geometry": { "type": "Point", "coordinates": [ 28369.923800, 30074.721500 ] } }
,
{ "type": "Feature", "properties": { "OBJECTID": "59", "HYPERLINK": "http:\/\/cozieelodge.com\/", "DESCRIPTIO": "", "POSTALCODE": "389198", "NAME": "Coziee Lodge", "ADDRESS": "77A & 79A Geylang Road", "INC_CRC": "95F0F936526FDB5B", "FMEL_UPD_D": "07\/24\/2014", "X_ADDR": "3.24023552000e+004", "Y_ADDR": "3.25642709000e+004" }, "geometry": { "type": "Point", "coordinates": [ 32402.355200, 32564.271000 ] } }
,
{ "type": "Feature", "properties": { "OBJECTID": "60", "HYPERLINK": "www.rwsentosa.com", "DESCRIPTIO": "", "POSTALCODE": "098270", "NAME": "Crockfords Tower", "ADDRESS": "10 Sentosa Gateway", "INC_CRC": "AD072B6C12467019", "FMEL_UPD_D": "07\/24\/2014", "X_ADDR": "2.64375895000e+004", "Y_ADDR": "2.65003132000e+004" }, "geometry": { "type": "Point", "coordinates": [ 26437.589600, 26500.313200 ] } }
,
{ "type": "Feature", "properties": { "OBJECTID": "61", "HYPERLINK": "www.crownplaza.com", "DESCRIPTIO": "", "POSTALCODE": "819664", "NAME": "Crowne Plaza Changi Airport", "ADDRESS": "75 Airport Boulevard", "INC_CRC": "B0AAD1C4899F89AE", "FMEL_UPD_D": "07\/24\/2014", "X_ADDR": "4.52083908000e+004", "Y_ADDR": "3.78620354000e+004" }, "geometry": { "type": "Point", "coordinates": [ 45208.390800, 37862.035500 ] } }
,
{ "type": "Feature", "properties": { "OBJECTID": "62", "HYPERLINK": "", "DESCRIPTIO": "", "POSTALCODE": "209019", "NAME": "Cultural Hotel", "ADDRESS": "270 Jalan Besar", "INC_CRC": "A02CB0DC1BA82C1F", "FMEL_UPD_D": "07\/24\/2014", "X_ADDR": "3.08169617000e+004", "Y_ADDR": "3.24942787000e+004" }, "geometry": { "type": "Point", "coordinates": [ 30816.961800, 32494.278800 ] } }
,
{ "type": "Feature", "properties": { "OBJECTID": "63", "HYPERLINK": "www.dkranji.com.sg", "DESCRIPTIO": "", "POSTALCODE": "718813", "NAME": "D' Kranji Farm Resort", "ADDRESS": "10 Neo Tiew Lane 2", "INC_CRC": "FF2600B9E9C9C651", "FMEL_UPD_D": "07\/24\/2014", "X_ADDR": "1.52143753000e+004", "Y_ADDR": "4.45630925000e+004" }, "geometry": { "type": "Point", "coordinates": [ 15214.375300, 44563.092600 ] } }
,
{ "type": "Feature", "properties": { "OBJECTID": "64", "HYPERLINK": "NA", "DESCRIPTIO": "", "POSTALCODE": "399096", "NAME": "Darlene Hotel (Geylang)", "ADDRESS": "32 Lorong 8 Geylang", "INC_CRC": "2EB72F9DF6785814", "FMEL_UPD_D": "07\/24\/2014", "X_ADDR": "3.28579881000e+004", "Y_ADDR": "3.25783208000e+004" }, "geometry": { "type": "Point", "coordinates": [ 32857.988200, 32578.320800 ] } }
,
{ "type": "Feature", "properties": { "OBJECTID": "65", "HYPERLINK": "www.dayshotelssingapore.com", "DESCRIPTIO": "", "POSTALCODE": "329133", "NAME": "Days Hotel Singapore At Zhongshan Park", "ADDRESS": "1 Jalan Rajah", "INC_CRC": "670337743366C347", "FMEL_UPD_D": "07\/24\/2014", "X_ADDR": "2.95633191000e+004", "Y_ADDR": "3.43559751000e+004" }, "geometry": { "type": "Point", "coordinates": [ 29563.319200, 34355.975200 ] } }
,
{ "type": "Feature", "properties": { "OBJECTID": "66", "HYPERLINK": "", "DESCRIPTIO": "", "POSTALCODE": "399099", "NAME": "Deluxe Hotel", "ADDRESS": "37 A\/B\/C Lorong 8 Geylang", "INC_CRC": "9922DB78E4B5C5A0", "FMEL_UPD_D": "07\/24\/2014", "X_ADDR": "3.29055438000e+004", "Y_ADDR": "3.25532656000e+004" }, "geometry": { "type": "Point", "coordinates": [ 32905.543900, 32553.265700 ] } }
,
{ "type": "Feature", "properties": { "OBJECTID": "67", "HYPERLINK": "", "DESCRIPTIO": "", "POSTALCODE": "398806", "NAME": "Diamond Hotel", "ADDRESS": "25 Lorong 18 Geylang", "INC_CRC": "96A6C6686B8E682C", "FMEL_UPD_D": "07\/24\/2014", "X_ADDR": "3.32885351000e+004", "Y_ADDR": "3.26844297000e+004" }, "geometry": { "type": "Point", "coordinates": [ 33288.535100, 32684.429700 ] } }
,
{ "type": "Feature", "properties": { "OBJECTID": "68", "HYPERLINK": "www.dorsetthotels.com\/singapore", "DESCRIPTIO": "", "POSTALCODE": "088765", "NAME": "Dorsett Singapore", "ADDRESS": "333 New Bridge Road", "INC_CRC": "3571FC896831C938", "FMEL_UPD_D": "07\/24\/2014", "X_ADDR": "2.87444335000e+004", "Y_ADDR": "2.91201394000e+004" }, "geometry": { "type": "Point", "coordinates": [ 28744.433500, 29120.139500 ] } }
,
{ "type": "Feature", "properties": { "OBJECTID": "69", "HYPERLINK": "", "DESCRIPTIO": "", "POSTALCODE": "059498", "NAME": "Dragon Court Hotel", "ADDRESS": "18 Mosque Street", "INC_CRC": "4ACE896D37B6057A", "FMEL_UPD_D": "07\/24\/2014", "X_ADDR": "2.92475118000e+004", "Y_ADDR": "2.95752594000e+004" }, "geometry": { "type": "Point", "coordinates": [ 29247.511800, 29575.259400 ] } }
,
{ "type": "Feature", "properties": { "OBJECTID": "70", "HYPERLINK": "", "DESCRIPTIO": "", "POSTALCODE": "098133", "NAME": "Equarius Hotel", "ADDRESS": "16 Sentosa Gateway", "INC_CRC": "F23862D7E1F84E6A", "FMEL_UPD_D": "07\/24\/2014", "X_ADDR": "2.61723603000e+004", "Y_ADDR": "2.66924119000e+004" }, "geometry": { "type": "Point", "coordinates": [ 26172.360400, 26692.411900 ] } }
,
{ "type": "Feature", "properties": { "OBJECTID": "71", "HYPERLINK": "www.fairmont.com\/singapore", "DESCRIPTIO": "", "POSTALCODE": "189560", "NAME": "Fairmont, Singapore", "ADDRESS": "80 Bras Basah Road", "INC_CRC": "BA0EB2B0BAFC96E8", "FMEL_UPD_D": "07\/24\/2014", "X_ADDR": "3.02978925000e+004", "Y_ADDR": "3.07099493000e+004" }, "geometry": { "type": "Point", "coordinates": [ 30297.892600, 30709.949300 ] } }
,
{ "type": "Feature", "properties": { "OBJECTID": "72", "HYPERLINK": "www.fernloft.com", "DESCRIPTIO": "", "POSTALCODE": "208930", "NAME": "Fernloft Hostel (Little India)", "ADDRESS": "257 Jalan Besar", "INC_CRC": "0F8AF20872879E6A", "FMEL_UPD_D": "07\/24\/2014", "X_ADDR": "3.07640762000e+004", "Y_ADDR": "3.24999551000e+004" }, "geometry": { "type": "Point", "coordinates": [ 30764.076200, 32499.955200 ] } }
,
{ "type": "Feature", "properties": { "OBJECTID": "73", "HYPERLINK": "www.rwsentosa.com", "DESCRIPTIO": "", "POSTALCODE": "098271", "NAME": "Festive Hotel", "ADDRESS": "12 Sentosa Gateway", "INC_CRC": "1DD95513F5E3DFA4", "FMEL_UPD_D": "07\/24\/2014", "X_ADDR": "2.64094171000e+004", "Y_ADDR": "2.65099590000e+004" }, "geometry": { "type": "Point", "coordinates": [ 26409.417100, 26509.959000 ] } }
,
{ "type": "Feature", "properties": { "OBJECTID": "74", "HYPERLINK": "", "DESCRIPTIO": "", "POSTALCODE": "058691", "NAME": "Five Stones Hostel", "ADDRESS": "61 South Bridge Road #02-01", "INC_CRC": "72294CD34406F654", "FMEL_UPD_D": "07\/24\/2014", "X_ADDR": "2.96671306000e+004", "Y_ADDR": "2.99399920000e+004" }, "geometry": { "type": "Point", "coordinates": [ 29667.130700, 29939.992000 ] } }
,
{ "type": "Feature", "properties": { "OBJECTID": "75", "HYPERLINK": "www.footprintshostel.com.sg", "DESCRIPTIO": "", "POSTALCODE": "208136", "NAME": "Footprints Hostel", "ADDRESS": "#01-01\/02, 2nd Storey & 3rd Storey, 25A Perak Road", "INC_CRC": "264DADBD4DFFE66D", "FMEL_UPD_D": "07\/24\/2014", "X_ADDR": "3.03087830000e+004", "Y_ADDR": "3.19804412000e+004" }, "geometry": { "type": "Point", "coordinates": [ 30308.783100, 31980.441300 ] } }
,
{ "type": "Feature", "properties": { "OBJECTID": "76", "HYPERLINK": "www.fortunahotel.com.sg", "DESCRIPTIO": "", "POSTALCODE": "218842", "NAME": "Fortuna Hotel", "ADDRESS": "2 Owen Road", "INC_CRC": "082CA248EA87AC29", "FMEL_UPD_D": "07\/24\/2014", "X_ADDR": "3.04077291000e+004", "Y_ADDR": "3.26674611000e+004" }, "geometry": { "type": "Point", "coordinates": [ 30407.729100, 32667.461100 ] } }
,
{ "type": "Feature", "properties": { "OBJECTID": "77", "HYPERLINK": "www.fourchain.com.sg", "DESCRIPTIO": "", "POSTALCODE": "389659", "NAME": "Four Chain View Hotel", "ADDRESS": "757 Geylang Road", "INC_CRC": "394D0C7671D361AF", "FMEL_UPD_D": "07\/24\/2014", "X_ADDR": "3.44109771000e+004", "Y_ADDR": "3.30343333000e+004" }, "geometry": { "type": "Point", "coordinates": [ 34410.977200, 33034.333400 ] } }
,
{ "type": "Feature", "properties": { "OBJECTID": "78", "HYPERLINK": "www.fourseasons.com\/singapore", "DESCRIPTIO": "", "POSTALCODE": "248646", "NAME": "Four Seasons Hotel", "ADDRESS": "190 Orchard Boulevard", "INC_CRC": "5DB17DDDBBBD61B7", "FMEL_UPD_D": "07\/24\/2014", "X_ADDR": "2.74807335000e+004", "Y_ADDR": "3.19490342000e+004" }, "geometry": { "type": "Point", "coordinates": [ 27480.733600, 31949.034300 ] } }
,
{ "type": "Feature", "properties": { "OBJECTID": "79", "HYPERLINK": "www.fragrancehotel.com", "DESCRIPTIO": "", "POSTALCODE": "329710", "NAME": "Fragrance Hotel - Balestier", "ADDRESS": "255 Balestier Road", "INC_CRC": "E0ABE410C3F31FB5", "FMEL_UPD_D": "07\/24\/2014", "X_ADDR": "3.01524060000e+004", "Y_ADDR": "3.38026476000e+004" }, "geometry": { "type": "Point", "coordinates": [ 30152.406000, 33802.647600 ] } }
,
{ "type": "Feature", "properties": { "OBJECTID": "80", "HYPERLINK": "", "DESCRIPTIO": "", "POSTALCODE": "188942", "NAME": "Fragrance Hotel - Bugis", "ADDRESS": "33 Middle Road", "INC_CRC": "C92ABDF73EA8A1E3", "FMEL_UPD_D": "07\/24\/2014", "X_ADDR": "3.04748466000e+004", "Y_ADDR": "3.10324451000e+004" }, "geometry": { "type": "Point", "coordinates": [ 30474.846700, 31032.445100 ] } }
,
{ "type": "Feature", "properties": { "OBJECTID": "81", "HYPERLINK": "www.fragrancehotel.com", "DESCRIPTIO": "", "POSTALCODE": "329808", "NAME": "Fragrance Hotel - Classic", "ADDRESS": "418 Balestier Road", "INC_CRC": "59373D1B893424C4", "FMEL_UPD_D": "07\/24\/2014", "X_ADDR": "2.98142746000e+004", "Y_ADDR": "3.42327927000e+004" }, "geometry": { "type": "Point", "coordinates": [ 29814.274600, 34232.792800 ] } }
,
{ "type": "Feature", "properties": { "OBJECTID": "82", "HYPERLINK": "www.fragrancehotel.com", "DESCRIPTIO": "", "POSTALCODE": "398824", "NAME": "Fragrance Hotel - Crystal", "ADDRESS": "50 Lorong 18 Geylang", "INC_CRC": "83252E2D6DDC20B8", "FMEL_UPD_D": "07\/24\/2014", "X_ADDR": "3.32608073000e+004", "Y_ADDR": "3.25422913000e+004" }, "geometry": { "type": "Point", "coordinates": [ 33260.807300, 32542.291300 ] } }
,
{ "type": "Feature", "properties": { "OBJECTID": "83", "HYPERLINK": "www.fragrancehotel.com", "DESCRIPTIO": "", "POSTALCODE": "399174", "NAME": "Fragrance Hotel - Emerald", "ADDRESS": "20 Lorong 6 Geylang", "INC_CRC": "04316D950294BEF5", "FMEL_UPD_D": "07\/24\/2014", "X_ADDR": "3.27880732000e+004", "Y_ADDR": "3.25903710000e+004" }, "geometry": { "type": "Point", "coordinates": [ 32788.073200, 32590.371100 ] } }
,
{ "type": "Feature", "properties": { "OBJECTID": "84", "HYPERLINK": "www.fragrancehotel.com", "DESCRIPTIO": "", "POSTALCODE": "208187", "NAME": "Fragrance Hotel - Imperial", "ADDRESS": "28 Penhas Road", "INC_CRC": "D1EEF3E2CE4B6474", "FMEL_UPD_D": "07\/24\/2014", "X_ADDR": "3.12393140000e+004", "Y_ADDR": "3.24384301000e+004" }, "geometry": { "type": "Point", "coordinates": [ 31239.314000, 32438.430200 ] } }
,
{ "type": "Feature", "properties": { "OBJECTID": "85", "HYPERLINK": "www.fragrancehotel.com", "DESCRIPTIO": "", "POSTALCODE": "534629", "NAME": "Fragrance Hotel - Kovan", "ADDRESS": "760 Upper Serangoon Road", "INC_CRC": "674AA2ECEF94E019", "FMEL_UPD_D": "07\/24\/2014", "X_ADDR": "3.30541201000e+004", "Y_ADDR": "3.73510769000e+004" }, "geometry": { "type": "Point", "coordinates": [ 33054.120200, 37351.077000 ] } }
,
{ "type": "Feature", "properties": { "OBJECTID": "86", "HYPERLINK": "www.fragrancehotel.com", "DESCRIPTIO": "", "POSTALCODE": "338710", "NAME": "Fragrance Hotel - Lavender", "ADDRESS": "51 Lavender Street", "INC_CRC": "EAE07AFFAD1F882A", "FMEL_UPD_D": "07\/24\/2014", "X_ADDR": "3.13111425000e+004", "Y_ADDR": "3.24554165000e+004" }, "geometry": { "type": "Point", "coordinates": [ 31311.142500, 32455.416500 ] } }
,
{ "type": "Feature", "properties": { "OBJECTID": "87", "HYPERLINK": "www.fragrancehotel.com", "DESCRIPTIO": "", "POSTALCODE": "329816", "NAME": "Fragrance Hotel - Oasis", "ADDRESS": "435 Balestier Road", "INC_CRC": "4DBB0A31B7D39630", "FMEL_UPD_D": "07\/24\/2014", "X_ADDR": "2.97012753000e+004", "Y_ADDR": "3.42352712000e+004" }, "geometry": { "type": "Point", "coordinates": [ 29701.275400, 34235.271300 ] } }
,
{ "type": "Feature", "properties": { "OBJECTID": "88", "HYPERLINK": "www.fragrancehotel.com", "DESCRIPTIO": "", "POSTALCODE": "118773", "NAME": "Fragrance Hotel - Ocean View", "ADDRESS": "432 Pasir Panjang Road", "INC_CRC": "AEFB6DAC2E5254D5", "FMEL_UPD_D": "07\/24\/2014", "X_ADDR": "2.07876747000e+004", "Y_ADDR": "3.05341592000e+004" }, "geometry": { "type": "Point", "coordinates": [ 20787.674700, 30534.159300 ] } }
,
{ "type": "Feature", "properties": { "OBJECTID": "89", "HYPERLINK": "www.fragrancehotel.com", "DESCRIPTIO": "", "POSTALCODE": "398961", "NAME": "Fragrance Hotel - Pearl", "ADDRESS": "21 Lorong 14 Geylang", "INC_CRC": "48BC971A531758F4", "FMEL_UPD_D": "07\/24\/2014", "X_ADDR": "3.31161152000e+004", "Y_ADDR": "3.26512903000e+004" }, "geometry": { "type": "Point", "coordinates": [ 33116.115300, 32651.290300 ] } }
,
{ "type": "Feature", "properties": { "OBJECTID": "90", "HYPERLINK": "www.fragrancehotel.com", "DESCRIPTIO": "", "POSTALCODE": "059663", "NAME": "Fragrance Hotel - Riverside", "ADDRESS": "20 Hongkong Street", "INC_CRC": "E73F8D218734E069", "FMEL_UPD_D": "07\/24\/2014", "X_ADDR": "2.95389206000e+004", "Y_ADDR": "3.00345614000e+004" }, "geometry": { "type": "Point", "coordinates": [ 29538.920700, 30034.561500 ] } }
,
{ "type": "Feature", "properties": { "OBJECTID": "91", "HYPERLINK": "www.fragrancehotel.com", "DESCRIPTIO": "", "POSTALCODE": "329715", "NAME": "Fragrance Hotel - Rose", "ADDRESS": "263 Balestier Road", "INC_CRC": "144CCF33D21B26E1", "FMEL_UPD_D": "07\/24\/2014", "X_ADDR": "3.01455532000e+004", "Y_ADDR": "3.38138381000e+004" }, "geometry": { "type": "Point", "coordinates": [ 30145.553300, 33813.838200 ] } }
,
{ "type": "Feature", "properties": { "OBJECTID": "92", "HYPERLINK": "www.fragrancehotel.com", "DESCRIPTIO": "", "POSTALCODE": "098838", "NAME": "Fragrance Hotel - Royal", "ADDRESS": "400 Telok Blangah Road", "INC_CRC": "6CE47F662862102A", "FMEL_UPD_D": "07\/24\/2014", "X_ADDR": "2.58360773000e+004", "Y_ADDR": "2.80232524000e+004" }, "geometry": { "type": "Point", "coordinates": [ 25836.077300, 28023.252500 ] } }
,
{ "type": "Feature", "properties": { "OBJECTID": "93", "HYPERLINK": "www.fragrancehotel.com", "DESCRIPTIO": "", "POSTALCODE": "398730", "NAME": "Fragrance Hotel - Ruby", "ADDRESS": "10 Lorong 20 Geylang", "INC_CRC": "482B51D4E891496E", "FMEL_UPD_D": "07\/24\/2014", "X_ADDR": "3.33172947000e+004", "Y_ADDR": "3.27261886000e+004" }, "geometry": { "type": "Point", "coordinates": [ 33317.294700, 32726.188700 ] } }
,
{ "type": "Feature", "properties": { "OBJECTID": "94", "HYPERLINK": "www.fragrancehotel.com", "DESCRIPTIO": "", "POSTALCODE": "399037", "NAME": "Fragrance Hotel - Sapphire", "ADDRESS": "3 Lorong 10 Geylang", "INC_CRC": "283AFBF217EE98E0", "FMEL_UPD_D": "07\/24\/2014", "X_ADDR": "3.29472344000e+004", "Y_ADDR": "3.26730614000e+004" }, "geometry": { "type": "Point", "coordinates": [ 32947.234400, 32673.061400 ] } }
,
{ "type": "Feature", "properties": { "OBJECTID": "95", "HYPERLINK": "www.fragrancehotel.com", "DESCRIPTIO": "", "POSTALCODE": "188329", "NAME": "Fragrance Hotel - Selegie", "ADDRESS": "183 Selegie Road", "INC_CRC": "B5D3C104E3499785", "FMEL_UPD_D": "07\/24\/2014", "X_ADDR": "2.98508470000e+004", "Y_ADDR": "3.17892563000e+004" }, "geometry": { "type": "Point", "coordinates": [ 29850.847100, 31789.256300 ] } }
,
{ "type": "Feature", "properties": { "OBJECTID": "96", "HYPERLINK": "www.fragrancehotel.com", "DESCRIPTIO": "", "POSTALCODE": "399043", "NAME": "Fragrance Hotel - Sunflower", "ADDRESS": "10 Lorong 10 Geylang", "INC_CRC": "968784965038EEF9", "FMEL_UPD_D": "07\/24\/2014", "X_ADDR": "3.29154214000e+004", "Y_ADDR": "3.26363641000e+004" }, "geometry": { "type": "Point", "coordinates": [ 32915.421400, 32636.364200 ] } }
,
{ "type": "Feature", "properties": { "OBJECTID": "97", "HYPERLINK": "www.fragrancehotel.com", "DESCRIPTIO": "", "POSTALCODE": "098721", "NAME": "Fragrance Hotel - Viva", "ADDRESS": "75 Wishart Road", "INC_CRC": "EE4DB1822BD61ADE", "FMEL_UPD_D": "07\/24\/2014", "X_ADDR": "2.58466279000e+004", "Y_ADDR": "2.80433011000e+004" }, "geometry": { "type": "Point", "coordinates": [ 25846.628000, 28043.301100 ] } }
,
{ "type": "Feature", "properties": { "OBJECTID": "98", "HYPERLINK": "www.fragracehotel.com", "DESCRIPTIO": "", "POSTALCODE": "118759", "NAME": "Fragrance Hotel - Waterfront", "ADDRESS": "418 Pasir Panjang Road", "INC_CRC": "96A882EDFEA724B9", "FMEL_UPD_D": "07\/24\/2014", "X_ADDR": "2.08294612000e+004", "Y_ADDR": "3.05115087000e+004" }, "geometry": { "type": "Point", "coordinates": [ 20829.461300, 30511.508700 ] } }
,
{ "type": "Feature", "properties": { "OBJECTID": "99", "HYPERLINK": "www.furama.com\/citycentre\/", "DESCRIPTIO": "", "POSTALCODE": "059804", "NAME": "Furama City Centre Singapore", "ADDRESS": "60 Eu Tong Sen Street", "INC_CRC": "EAA704ED31A23143", "FMEL_UPD_D": "07\/24\/2014", "X_ADDR": "2.92542531000e+004", "Y_ADDR": "2.98772333000e+004" }, "geometry": { "type": "Point", "coordinates": [ 29254.253100, 29877.233300 ] } }
,
{ "type": "Feature", "properties": { "OBJECTID": "100", "HYPERLINK": "www.furama.com\/riverfront\/", "DESCRIPTIO": "", "POSTALCODE": "169633", "NAME": "Furama Riverfront Singapore", "ADDRESS": "405 Havelock Road", "INC_CRC": "FDEDA5736CC68BBF", "FMEL_UPD_D": "07\/24\/2014", "X_ADDR": "2.83087520000e+004", "Y_ADDR": "3.00056053000e+004" }, "geometry": { "type": "Point", "coordinates": [ 28308.752000, 30005.605400 ] } }
,
{ "type": "Feature", "properties": { "OBJECTID": "101", "HYPERLINK": "www.g4station.com", "DESCRIPTIO": "", "POSTALCODE": "228675", "NAME": "G4 Station Backpackers Hostel", "ADDRESS": "11 Mackenzie Road", "INC_CRC": "BAFA3BB5794C45F7", "FMEL_UPD_D": "07\/24\/2014", "X_ADDR": "2.98462112000e+004", "Y_ADDR": "3.18559711000e+004" }, "geometry": { "type": "Point", "coordinates": [ 29846.211300, 31855.971100 ] } }
,
{ "type": "Feature", "properties": { "OBJECTID": "102", "HYPERLINK": "www.gapyearhostel.com", "DESCRIPTIO": "", "POSTALCODE": "338821", "NAME": "Gap Year Hostel", "ADDRESS": "322 Lavender Street", "INC_CRC": "17F861F135CBA926", "FMEL_UPD_D": "07\/24\/2014", "X_ADDR": "3.09057103000e+004", "Y_ADDR": "3.31023259000e+004" }, "geometry": { "type": "Point", "coordinates": [ 30905.710300, 33102.326000 ] } }
,
{ "type": "Feature", "properties": { "OBJECTID": "103", "HYPERLINK": "", "DESCRIPTIO": "", "POSTALCODE": "389218", "NAME": "Gay World Hotel", "ADDRESS": "115 Geylang Road", "INC_CRC": "4A1CB1F5922CD10D", "FMEL_UPD_D": "07\/24\/2014", "X_ADDR": "3.24986782000e+004", "Y_ADDR": "3.26108532000e+004" }, "geometry": { "type": "Point", "coordinates": [ 32498.678300, 32610.853300 ] } }
,
{ "type": "Feature", "properties": { "OBJECTID": "104", "HYPERLINK": "", "DESCRIPTIO": "", "POSTALCODE": "397662", "NAME": "Golden Dragon Hotel", "ADDRESS": "61 Westerhout Road", "INC_CRC": "EEC2B072AB0827C7", "FMEL_UPD_D": "07\/24\/2014", "X_ADDR": "3.33107388000e+004", "Y_ADDR": "3.26139254000e+004" }, "geometry": { "type": "Point", "coordinates": [ 33310.738800, 32613.925500 ] } }
,
{ "type": "Feature", "properties": { "OBJECTID": "105", "HYPERLINK": "www.goldenroyal-hotel.com", "DESCRIPTIO": "", "POSTALCODE": "209645", "NAME": "Golden Royal Hotel", "ADDRESS": "51 Desker Road", "INC_CRC": "0F2A74B20D7119FD", "FMEL_UPD_D": "07\/24\/2014", "X_ADDR": "3.04408652000e+004", "Y_ADDR": "3.23838077000e+004" }, "geometry": { "type": "Point", "coordinates": [ 30440.865300, 32383.807700 ] } }
,
{ "type": "Feature", "properties": { "OBJECTID": "106", "HYPERLINK": "", "DESCRIPTIO": "", "POSTALCODE": "399095", "NAME": "Golden Star Hotel", "ADDRESS": "31 Lorong 8 Geylang", "INC_CRC": "8DBBCCF94CCE2678", "FMEL_UPD_D": "07\/24\/2014", "X_ADDR": "3.28987627000e+004", "Y_ADDR": "3.25637986000e+004" }, "geometry": { "type": "Point", "coordinates": [ 32898.762800, 32563.798700 ] } }
,
{ "type": "Feature", "properties": { "OBJECTID": "107", "HYPERLINK": "NA", "DESCRIPTIO": "", "POSTALCODE": "399045", "NAME": "Oxley Hotel 88", "ADDRESS": "12 Lorong 10 Geylang", "INC_CRC": "22841D642B18D965", "FMEL_UPD_D": "07\/24\/2014", "X_ADDR": "3.29184085000e+004", "Y_ADDR": "3.26211887000e+004" }, "geometry": { "type": "Point", "coordinates": [ 32918.408600, 32621.188800 ] } }
,
{ "type": "Feature", "properties": { "OBJECTID": "108", "HYPERLINK": "www.panpacific.com\/orchard.html", "DESCRIPTIO": "", "POSTALCODE": "229540", "NAME": "Pan Pacific Orchard", "ADDRESS": "10 Claymore Road", "INC_CRC": "008099D8BA1130DD", "FMEL_UPD_D": "07\/24\/2014", "X_ADDR": "2.76182019000e+004", "Y_ADDR": "3.21898672000e+004" }, "geometry": { "type": "Point", "coordinates": [ 27618.202000, 32189.867200 ] } }
,
{ "type": "Feature", "properties": { "OBJECTID": "109", "HYPERLINK": "", "DESCRIPTIO": "", "POSTALCODE": "199592", "NAME": "Pan Pacific Serviced Suites Beach Road", "ADDRESS": "7500B Beach Road", "INC_CRC": "68097B209C692D5A", "FMEL_UPD_D": "07\/24\/2014", "X_ADDR": "3.10414385000e+004", "Y_ADDR": "3.13309374000e+004" }, "geometry": { "type": "Point", "coordinates": [ 31041.438500, 31330.937400 ] } }
,
{ "type": "Feature", "properties": { "OBJECTID": "110", "HYPERLINK": "www.parcsovereign.com", "DESCRIPTIO": "", "POSTALCODE": "189970", "NAME": "Parc Sovereign Hotel", "ADDRESS": "175 Albert Street", "INC_CRC": "F2404EEA1B8FE7FC", "FMEL_UPD_D": "07\/24\/2014", "X_ADDR": "2.99881179000e+004", "Y_ADDR": "3.17704182000e+004" }, "geometry": { "type": "Point", "coordinates": [ 29988.118000, 31770.418300 ] } }
,
{ "type": "Feature", "properties": { "OBJECTID": "111", "HYPERLINK": "www.parcsovereign.com", "DESCRIPTIO": "", "POSTALCODE": "207569", "NAME": "Parc Sovereign Hotel - Tyrwhitt", "ADDRESS": "165 Tyrwhitt Road", "INC_CRC": "3DB823F067C803BE", "FMEL_UPD_D": "07\/24\/2014", "X_ADDR": "3.10399233000e+004", "Y_ADDR": "3.27348921000e+004" }, "geometry": { "type": "Point", "coordinates": [ 31039.923400, 32734.892100 ] } }
,
{ "type": "Feature", "properties": { "OBJECTID": "112", "HYPERLINK": "www.park22hotel.com", "DESCRIPTIO": "", "POSTALCODE": "088392", "NAME": "Park 22 Hotel", "ADDRESS": "22 Teck Lim Road", "INC_CRC": "5B48DFD2C867B843", "FMEL_UPD_D": "07\/24\/2014", "X_ADDR": "2.89460985000e+004", "Y_ADDR": "2.92301570000e+004" }, "geometry": { "type": "Point", "coordinates": [ 28946.098500, 29230.157100 ] } }
,
{ "type": "Feature", "properties": { "OBJECTID": "113", "HYPERLINK": "www.parkavenuechangi.com", "DESCRIPTIO": "", "POSTALCODE": "486015", "NAME": "Park Avenue Changi", "ADDRESS": "2 Changi Business Park Avenue 1", "INC_CRC": "6A52530E0C23A14D", "FMEL_UPD_D": "07\/24\/2014", "X_ADDR": "4.24307418000e+004", "Y_ADDR": "3.53204677000e+004" }, "geometry": { "type": "Point", "coordinates": [ 42430.741800, 35320.467700 ] } }
,
{ "type": "Feature", "properties": { "OBJECTID": "114", "HYPERLINK": "www.parkavenuerochester.com", "DESCRIPTIO": "", "POSTALCODE": "138637", "NAME": "Park Avenue Rochester", "ADDRESS": "31 Rochester Drive", "INC_CRC": "30C7D6DFFD3887FF", "FMEL_UPD_D": "07\/24\/2014", "X_ADDR": "2.29951189000e+004", "Y_ADDR": "3.19646688000e+004" }, "geometry": { "type": "Point", "coordinates": [ 22995.119000, 31964.668800 ] } }
,
{ "type": "Feature", "properties": { "OBJECTID": "115", "HYPERLINK": "www.parkhotelgroup.com", "DESCRIPTIO": "", "POSTALCODE": "237983", "NAME": "Park Hotel Clarke Quay", "ADDRESS": "1 Unity Street", "INC_CRC": "9640E093D03AC018", "FMEL_UPD_D": "07\/24\/2014", "X_ADDR": "2.90026080000e+004", "Y_ADDR": "3.04381121000e+004" }, "geometry": { "type": "Point", "coordinates": [ 29002.608000, 30438.112200 ] } }
,
{ "type": "Feature", "properties": { "OBJECTID": "116", "HYPERLINK": "www.parkregissingapore.com", "DESCRIPTIO": "", "POSTALCODE": "058268", "NAME": "Park Regis Singapore", "ADDRESS": "23 Merchant Road", "INC_CRC": "7666C9A272E278A9", "FMEL_UPD_D": "07\/24\/2014", "X_ADDR": "2.92380899000e+004", "Y_ADDR": "3.00552588000e+004" }, "geometry": { "type": "Point", "coordinates": [ 29238.090000, 30055.258900 ] } }
,
{ "type": "Feature", "properties": { "OBJECTID": "117", "HYPERLINK": "www.parkview.com.sg", "DESCRIPTIO": "", "POSTALCODE": "189692", "NAME": "Park View Hotel", "ADDRESS": "81 Beach Road", "INC_CRC": "68A717119BFC074D", "FMEL_UPD_D": "07\/24\/2014", "X_ADDR": "3.05792528000e+004", "Y_ADDR": "3.10639977000e+004" }, "geometry": { "type": "Point", "coordinates": [ 30579.252900, 31063.997700 ] } }
,
{ "type": "Feature", "properties": { "OBJECTID": "118", "HYPERLINK": "www.parkroyalhotels.com", "DESCRIPTIO": "", "POSTALCODE": "199591", "NAME": "PARKROYAL on Beach Road, Singapore", "ADDRESS": "7500A Beach Road, The Plaza", "INC_CRC": "3A54CCBB9274F47F", "FMEL_UPD_D": "07\/24\/2014", "X_ADDR": "3.09772187000e+004", "Y_ADDR": "3.13125275000e+004" }, "geometry": { "type": "Point", "coordinates": [ 30977.218700, 31312.527600 ] } }
,
{ "type": "Feature", "properties": { "OBJECTID": "119", "HYPERLINK": "www.parkroyalhotels.com", "DESCRIPTIO": "", "POSTALCODE": "208533", "NAME": "PARKROYAL on Kitchener Road", "ADDRESS": "181 Kitchener Road", "INC_CRC": "EF3D6579E7194665", "FMEL_UPD_D": "07\/24\/2014", "X_ADDR": "3.04810859000e+004", "Y_ADDR": "3.25488417000e+004" }, "geometry": { "type": "Point", "coordinates": [ 30481.085900, 32548.841700 ] } }
,
{ "type": "Feature", "properties": { "OBJECTID": "120", "HYPERLINK": "www.parkroyalhotels.com", "DESCRIPTIO": "", "POSTALCODE": "058289", "NAME": "PARKROYAL on Pickering", "ADDRESS": "3 Upper Pickering Street", "INC_CRC": "8B81D476CCC3A15D", "FMEL_UPD_D": "07\/24\/2014", "X_ADDR": "2.94436415000e+004", "Y_ADDR": "2.97849678000e+004" }, "geometry": { "type": "Point", "coordinates": [ 29443.641600, 29784.967800 ] } }
,
{ "type": "Feature", "properties": { "OBJECTID": "121", "HYPERLINK": "www.ppinn.com.sg\/", "DESCRIPTIO": "", "POSTALCODE": "118741", "NAME": "Pasir Panjang Inn", "ADDRESS": "404 Pasir Panjang Road", "INC_CRC": "BC671ACD489A45C0", "FMEL_UPD_D": "07\/24\/2014", "X_ADDR": "2.09718337000e+004", "Y_ADDR": "3.04970648000e+004" }, "geometry": { "type": "Point", "coordinates": [ 20971.833700, 30497.064900 ] } }
,
{ "type": "Feature", "properties": { "OBJECTID": "122", "HYPERLINK": "www.ytchotels.com.sg", "DESCRIPTIO": "", "POSTALCODE": "179805", "NAME": "Peninsula.Excelsior Hotel", "ADDRESS": "3 & 5 Coleman Street", "INC_CRC": "2531BB81D6318595", "FMEL_UPD_D": "07\/24\/2014", "X_ADDR": "2.98365114000e+004", "Y_ADDR": "3.04823419000e+004" }, "geometry": { "type": "Point", "coordinates": [ 29836.511400, 30482.341900 ] } }
,
{ "type": "Feature", "properties": { "OBJECTID": "123", "HYPERLINK": "www.pentahotel.com.sg", "DESCRIPTIO": "", "POSTALCODE": "219894", "NAME": "Penta Hotel", "ADDRESS": "33 Birch Road", "INC_CRC": "BC633B2A0631561F", "FMEL_UPD_D": "07\/24\/2014", "X_ADDR": "3.02568938000e+004", "Y_ADDR": "3.26105443000e+004" }, "geometry": { "type": "Point", "coordinates": [ 30256.893900, 32610.544400 ] } }
,
{ "type": "Feature", "properties": { "OBJECTID": "124", "HYPERLINK": "www.peraklodge.net", "DESCRIPTIO": "", "POSTALCODE": "208133", "NAME": "Perak Hotel", "ADDRESS": "12 Perak Road", "INC_CRC": "0A1449BA07244B3E", "FMEL_UPD_D": "07\/24\/2014", "X_ADDR": "3.02140613000e+004", "Y_ADDR": "3.19012039000e+004" }, "geometry": { "type": "Point", "coordinates": [ 30214.061300, 31901.203900 ] } }
,
{ "type": "Feature", "properties": { "OBJECTID": "125", "HYPERLINK": "", "DESCRIPTIO": "", "POSTALCODE": "209518", "NAME": "Phil Inn", "ADDRESS": "43 Dickson Road", "INC_CRC": "D88C28CB3CF15385", "FMEL_UPD_D": "07\/24\/2014", "X_ADDR": "3.02709161000e+004", "Y_ADDR": "3.19664707000e+004" }, "geometry": { "type": "Point", "coordinates": [ 30270.916200, 31966.470800 ] } }
,
{ "type": "Feature", "properties": { "OBJECTID": "126", "HYPERLINK": "www.pillowsntoast.com", "DESCRIPTIO": "", "POSTALCODE": "059518", "NAME": "Pillows & Toast", "ADDRESS": "40 Mosque Street", "INC_CRC": "953FE9C0ABCD402F", "FMEL_UPD_D": "07\/24\/2014", "X_ADDR": "2.92945422000e+004", "Y_ADDR": "2.95878029000e+004" }, "geometry": { "type": "Point", "coordinates": [ 29294.542200, 29587.803000 ] } }
,
{ "type": "Feature", "properties": { "OBJECTID": "127", "HYPERLINK": "", "DESCRIPTIO": "", "POSTALCODE": "829168", "NAME": "Gallop Wagons", "ADDRESS": "900 Punggol Road", "INC_CRC": "FD4E0C358E48CFB5", "FMEL_UPD_D": "07\/24\/2014", "X_ADDR": "3.66274967000e+004", "Y_ADDR": "4.46513864000e+004" }, "geometry": { "type": "Point", "coordinates": [ 36627.496700, 44651.386500 ] } }
,
{ "type": "Feature", "properties": { "OBJECTID": "128", "HYPERLINK": "", "DESCRIPTIO": "", "POSTALCODE": "089540", "NAME": "The Duxton", "ADDRESS": "83 Duxton Road", "INC_CRC": "0FEC2EB6A3E013D4", "FMEL_UPD_D": "07\/24\/2014", "X_ADDR": "2.90983716000e+004", "Y_ADDR": "2.90365079000e+004" }, "geometry": { "type": "Point", "coordinates": [ 29098.371600, 29036.508000 ] } }
,
{ "type": "Feature", "properties": { "OBJECTID": "129", "HYPERLINK": "www.stayfareast.com.sg", "DESCRIPTIO": "", "POSTALCODE": "228518", "NAME": "The Elizabeth", "ADDRESS": "24 Mount Elizabeth", "INC_CRC": "B380232887B2AA6D", "FMEL_UPD_D": "07\/24\/2014", "X_ADDR": "2.82663992000e+004", "Y_ADDR": "3.22601806000e+004" }, "geometry": { "type": "Point", "coordinates": [ 28266.399300, 32260.180600 ] } }
,
{ "type": "Feature", "properties": { "OBJECTID": "130", "HYPERLINK": "www.fragrancehotel.com", "DESCRIPTIO": "", "POSTALCODE": "427485", "NAME": "The Fragrance Hotel", "ADDRESS": "219 Joo Chiat Road", "INC_CRC": "0F8D4D6E81DC77BE", "FMEL_UPD_D": "07\/24\/2014", "X_ADDR": "3.55598548000e+004", "Y_ADDR": "3.26442521000e+004" }, "geometry": { "type": "Point", "coordinates": [ 35559.854900, 32644.252100 ] } }
,
{ "type": "Feature", "properties": { "OBJECTID": "131", "HYPERLINK": "www.fullertonbayhotel.com", "DESCRIPTIO": "", "POSTALCODE": "049326", "NAME": "The Fullerton Bay Hotel", "ADDRESS": "80 Collyer Quay", "INC_CRC": "44903E6D0F10C14B", "FMEL_UPD_D": "07\/24\/2014", "X_ADDR": "3.02438218000e+004", "Y_ADDR": "2.96000397000e+004" }, "geometry": { "type": "Point", "coordinates": [ 30243.821800, 29600.039800 ] } }
,
{ "type": "Feature", "properties": { "OBJECTID": "132", "HYPERLINK": "www.fullertonhotel.com", "DESCRIPTIO": "", "POSTALCODE": "049178", "NAME": "The Fullerton Hotel", "ADDRESS": "1 Fullerton Square", "INC_CRC": "DC20F2A070DEEB00", "FMEL_UPD_D": "07\/24\/2014", "X_ADDR": "3.01870783000e+004", "Y_ADDR": "2.98462423000e+004" }, "geometry": { "type": "Point", "coordinates": [ 30187.078300, 29846.242300 ] } }
,
{ "type": "Feature", "properties": { "OBJECTID": "133", "HYPERLINK": "www.galleryhotel.com.sg", "DESCRIPTIO": "", "POSTALCODE": "238909", "NAME": "The Gallery Hotel", "ADDRESS": "1 Nanson Road", "INC_CRC": "637FA0CCAA570920", "FMEL_UPD_D": "07\/24\/2014", "X_ADDR": "2.85837880000e+004", "Y_ADDR": "3.02684146000e+004" }, "geometry": { "type": "Point", "coordinates": [ 28583.788100, 30268.414700 ] } }
,
{ "type": "Feature", "properties": { "OBJECTID": "134", "HYPERLINK": "www.greenkiwi.com.sg", "DESCRIPTIO": "", "POSTALCODE": "338800", "NAME": "The Green Kiwi Backpacker Hostel", "ADDRESS": "280A Lavender Street", "INC_CRC": "23EEC7B86A1DC422", "FMEL_UPD_D": "07\/24\/2014", "X_ADDR": "3.10045482000e+004", "Y_ADDR": "3.29610626000e+004" }, "geometry": { "type": "Point", "coordinates": [ 31004.548200, 32961.062700 ] } }
,
{ "type": "Feature", "properties": { "OBJECTID": "135", "HYPERLINK": "NA", "DESCRIPTIO": "", "POSTALCODE": "058581", "NAME": "The Inn at Temple Street", "ADDRESS": "36 Temple Street", "INC_CRC": "AC3F03C44783B83F", "FMEL_UPD_D": "07\/24\/2014", "X_ADDR": "2.91741174000e+004", "Y_ADDR": "2.95159911000e+004" }, "geometry": { "type": "Point", "coordinates": [ 29174.117500, 29515.991100 ] } }
,
{ "type": "Feature", "properties": { "OBJECTID": "136", "HYPERLINK": "NA", "DESCRIPTIO": "", "POSTALCODE": "089165", "NAME": "The Keong Saik Hotel", "ADDRESS": "69 Keong Saik Road", "INC_CRC": "B41CEB9D4B023B41", "FMEL_UPD_D": "07\/24\/2014", "X_ADDR": "2.89261250000e+004", "Y_ADDR": "2.92763113000e+004" }, "geometry": { "type": "Point", "coordinates": [ 28926.125000, 29276.311300 ] } }
,
{ "type": "Feature", "properties": { "OBJECTID": "137", "HYPERLINK": "www.mitraa.com.sg", "DESCRIPTIO": "", "POSTALCODE": "218673", "NAME": "The Mitraa", "ADDRESS": "427 Race Course Road", "INC_CRC": "95C9BD2369945175", "FMEL_UPD_D": "07\/24\/2014", "X_ADDR": "3.06973283000e+004", "Y_ADDR": "3.31322763000e+004" }, "geometry": { "type": "Point", "coordinates": [ 30697.328300, 33132.276300 ] } }
,
{ "type": "Feature", "properties": { "OBJECTID": "138", "HYPERLINK": "www.panpacific.com", "DESCRIPTIO": "", "POSTALCODE": "039595", "NAME": "The Pan Pacific Hotel Singapore", "ADDRESS": "7 Raffles Boulevard", "INC_CRC": "50DE08020F20C8E8", "FMEL_UPD_D": "07\/24\/2014", "X_ADDR": "3.08363525000e+004", "Y_ADDR": "3.05295632000e+004" }, "geometry": { "type": "Point", "coordinates": [ 30836.352600, 30529.563200 ] } }
,
{ "type": "Feature", "properties": { "OBJECTID": "139", "HYPERLINK": "theplothostels.com", "DESCRIPTIO": "", "POSTALCODE": "169056", "NAME": "The Plot Hostels", "ADDRESS": "259 Outram Road", "INC_CRC": "948201074124CBB4", "FMEL_UPD_D": "07\/24\/2014", "X_ADDR": "2.81567094000e+004", "Y_ADDR": "2.97148663000e+004" }, "geometry": { "type": "Point", "coordinates": [ 28156.709500, 29714.866400 ] } }
,
{ "type": "Feature", "properties": { "OBJECTID": "140", "HYPERLINK": "", "DESCRIPTIO": "", "POSTALCODE": "199552", "NAME": "The Pod", "ADDRESS": "289 Beach Road #03-01, #04-01 & #05-01", "INC_CRC": "9CB5955A5BC8F378", "FMEL_UPD_D": "07\/24\/2014", "X_ADDR": "3.10302125000e+004", "Y_ADDR": "3.14892874000e+004" }, "geometry": { "type": "Point", "coordinates": [ 31030.212500, 31489.287500 ] } }
,
{ "type": "Feature", "properties": { "OBJECTID": "141", "HYPERLINK": "www.stayfareast.com.sg", "DESCRIPTIO": "", "POSTALCODE": "228517", "NAME": "The Quincy hotel", "ADDRESS": "22 Mount Elizabeth", "INC_CRC": "BA9800A50B5AB797", "FMEL_UPD_D": "07\/24\/2014", "X_ADDR": "2.82704073000e+004", "Y_ADDR": "3.22300393000e+004" }, "geometry": { "type": "Point", "coordinates": [ 28270.407300, 32230.039300 ] } }
,
{ "type": "Feature", "properties": { "OBJECTID": "142", "HYPERLINK": "www.regenthotels.com\/singapore-hotel-sg-249715\/risin", "DESCRIPTIO": "", "POSTALCODE": "249715", "NAME": "The Regent Singapore", "ADDRESS": "1 Cuscaden Road", "INC_CRC": "36FB89E16E6BC635", "FMEL_UPD_D": "07\/24\/2014", "X_ADDR": "2.70627965000e+004", "Y_ADDR": "3.18896568000e+004" }, "geometry": { "type": "Point", "coordinates": [ 27062.796500, 31889.656800 ] } }
,
{ "type": "Feature", "properties": { "OBJECTID": "143", "HYPERLINK": "www.ritzcarlton.com\/hotels\/singapore", "DESCRIPTIO": "", "POSTALCODE": "039799", "NAME": "The Ritz-Carlton, Millenia Singapore", "ADDRESS": "7 Raffles Avenue", "INC_CRC": "C887699407085416", "FMEL_UPD_D": "07\/24\/2014", "X_ADDR": "3.09746739000e+004", "Y_ADDR": "3.03466082000e+004" }, "geometry": { "type": "Point", "coordinates": [ 30974.674000, 30346.608200 ] } }
,
{ "type": "Feature", "properties": { "OBJECTID": "144", "HYPERLINK": "www.thescarlethotel.com", "DESCRIPTIO": "", "POSTALCODE": "069333", "NAME": "The Scarlet Hotel", "ADDRESS": "33 Erskine Road", "INC_CRC": "6360B868897CB820", "FMEL_UPD_D": "07\/24\/2014", "X_ADDR": "2.93446856000e+004", "Y_ADDR": "2.92513289000e+004" }, "geometry": { "type": "Point", "coordinates": [ 29344.685600, 29251.329000 ] } }
,
{ "type": "Feature", "properties": { "OBJECTID": "145", "HYPERLINK": "www.theseacarehotel.com.sg", "DESCRIPTIO": "", "POSTALCODE": "169875", "NAME": "The Seacare Hotel", "ADDRESS": "52 Chin Swee Road", "INC_CRC": "998AEA2095B9337D", "FMEL_UPD_D": "07\/24\/2014", "X_ADDR": "2.87261273000e+004", "Y_ADDR": "3.00146443000e+004" }, "geometry": { "type": "Point", "coordinates": [ 28726.127400, 30014.644300 ] } }
,
{ "type": "Feature", "properties": { "OBJECTID": "146", "HYPERLINK": "", "DESCRIPTIO": "", "POSTALCODE": "099891", "NAME": "The Singapore Resort & Spa", "ADDRESS": "2 Bukit Manis Road", "INC_CRC": "AE53B0A6E510B707", "FMEL_UPD_D": "07\/24\/2014", "X_ADDR": "2.73552922000e+004", "Y_ADDR": "2.52979441000e+004" }, "geometry": { "type": "Point", "coordinates": [ 27355.292300, 25297.944100 ] } }
,
{ "type": "Feature", "properties": { "OBJECTID": "147", "HYPERLINK": "www.thesouthbridgehote.com", "DESCRIPTIO": "", "POSTALCODE": "058759", "NAME": "The Southbridge Hotel", "ADDRESS": "210 South Bridge Road", "INC_CRC": "7D262BE0979DE4AA", "FMEL_UPD_D": "07\/24\/2014", "X_ADDR": "2.93731440000e+004", "Y_ADDR": "2.95394704000e+004" }, "geometry": { "type": "Point", "coordinates": [ 29373.144000, 29539.470400 ] } }
,
{ "type": "Feature", "properties": { "OBJECTID": "148", "HYPERLINK": "http:\/\/thesultan.com.sg", "DESCRIPTIO": "", "POSTALCODE": "199002", "NAME": "The Sultan", "ADDRESS": "101 Jalan Sultan", "INC_CRC": "CC75658B83E955FC", "FMEL_UPD_D": "07\/24\/2014", "X_ADDR": "3.10737768000e+004", "Y_ADDR": "3.17290963000e+004" }, "geometry": { "type": "Point", "coordinates": [ 31073.776800, 31729.096300 ] } }
,
{ "type": "Feature", "properties": { "OBJECTID": "149", "HYPERLINK": "www.westin.com", "DESCRIPTIO": "", "POSTALCODE": "018961", "NAME": "The Westin Singapore", "ADDRESS": "12 Marina View Asia Square Tower 2", "INC_CRC": "54DE9A18DDC1ED2C", "FMEL_UPD_D": "07\/24\/2014", "X_ADDR": "2.99450060000e+004", "Y_ADDR": "2.89742535000e+004" }, "geometry": { "type": "Point", "coordinates": [ 29945.006100, 28974.253600 ] } }
,
{ "type": "Feature", "properties": { "OBJECTID": "150", "HYPERLINK": "www.shangri-la.com", "DESCRIPTIO": "", "POSTALCODE": "249716", "NAME": "Traders Hotel Singapore", "ADDRESS": "1A Cuscaden Road", "INC_CRC": "CB1E3A677DDB1519", "FMEL_UPD_D": "07\/24\/2014", "X_ADDR": "2.69531739000e+004", "Y_ADDR": "3.18451302000e+004" }, "geometry": { "type": "Point", "coordinates": [ 26953.174000, 31845.130200 ] } }
,
{ "type": "Feature", "properties": { "OBJECTID": "151", "HYPERLINK": "", "DESCRIPTIO": "", "POSTALCODE": "208559", "NAME": "Traveller@sg", "ADDRESS": "111H\/N King George's Avenue", "INC_CRC": "ACD48F13D54C9989", "FMEL_UPD_D": "07\/24\/2014", "X_ADDR": "3.11602774000e+004", "Y_ADDR": "3.25153314000e+004" }, "geometry": { "type": "Point", "coordinates": [ 31160.277500, 32515.331500 ] } }
,
{ "type": "Feature", "properties": { "OBJECTID": "152", "HYPERLINK": "", "DESCRIPTIO": "", "POSTALCODE": "208953", "NAME": "Travellers Inn", "ADDRESS": "290A Jalan Besar", "INC_CRC": "C4F700B2407C8F9B", "FMEL_UPD_D": "07\/24\/2014", "X_ADDR": "3.08474660000e+004", "Y_ADDR": "3.25501360000e+004" }, "geometry": { "type": "Point", "coordinates": [ 30847.466000, 32550.136100 ] } }
,
{ "type": "Feature", "properties": { "OBJECTID": "153", "HYPERLINK": "", "DESCRIPTIO": "", "POSTALCODE": "209854", "NAME": "Tresor Tavern", "ADDRESS": "26 Cavan Road", "INC_CRC": "B6FD10329B58F4CF", "FMEL_UPD_D": "07\/24\/2014", "X_ADDR": "3.11721180000e+004", "Y_ADDR": "3.25758820000e+004" }, "geometry": { "type": "Point", "coordinates": [ 31172.118100, 32575.882100 ] } }
,
{ "type": "Feature", "properties": { "OBJECTID": "154", "HYPERLINK": "www.vhotel.sg", "DESCRIPTIO": "", "POSTALCODE": "189627", "NAME": "V Hotel Bencoolen", "ADDRESS": "48 Bencoolen Street", "INC_CRC": "63E86FF16D66774E", "FMEL_UPD_D": "07\/24\/2014", "X_ADDR": "2.99414263000e+004", "Y_ADDR": "3.12561382000e+004" }, "geometry": { "type": "Point", "coordinates": [ 29941.426300, 31256.138300 ] } }
,
{ "type": "Feature", "properties": { "OBJECTID": "155", "HYPERLINK": "www.vhotel.sg", "DESCRIPTIO": "", "POSTALCODE": "208767", "NAME": "V Hotel Lavender", "ADDRESS": "70 Jellicoe Road", "INC_CRC": "684FDEA71C01B46A", "FMEL_UPD_D": "07\/24\/2014", "X_ADDR": "3.12515209000e+004", "Y_ADDR": "3.22350625000e+004" }, "geometry": { "type": "Point", "coordinates": [ 31251.521000, 32235.062500 ] } }
,
{ "type": "Feature", "properties": { "OBJECTID": "156", "HYPERLINK": "www.valuehotel.com.sg", "DESCRIPTIO": "", "POSTALCODE": "329684", "NAME": "Value Hotel - Balestier", "ADDRESS": "218 Balestier Road", "INC_CRC": "57A3115093926BB1", "FMEL_UPD_D": "07\/24\/2014", "X_ADDR": "3.02204539000e+004", "Y_ADDR": "3.37215142000e+004" }, "geometry": { "type": "Point", "coordinates": [ 30220.453900, 33721.514300 ] } }
,
{ "type": "Feature", "properties": { "OBJECTID": "157", "HYPERLINK": "www.hotel81.com.sg", "DESCRIPTIO": "", "POSTALCODE": "399001", "NAME": "Hotel 81 - Princess", "ADDRESS": "21 Lorong 12 Geylang", "INC_CRC": "0A21FCC2E5779786", "FMEL_UPD_D": "07\/24\/2014", "X_ADDR": "3.30429968000e+004", "Y_ADDR": "3.25880724000e+004" }, "geometry": { "type": "Point", "coordinates": [ 33042.996900, 32588.072500 ] } }
,
{ "type": "Feature", "properties": { "OBJECTID": "158", "HYPERLINK": "www.hotel81.com.sg", "DESCRIPTIO": "", "POSTALCODE": "208785", "NAME": "Hotel 81 - Rochor", "ADDRESS": "5 Jalan Besar", "INC_CRC": "97FEF09687A5BB3F", "FMEL_UPD_D": "07\/24\/2014", "X_ADDR": "3.02998037000e+004", "Y_ADDR": "3.17880490000e+004" }, "geometry": { "type": "Point", "coordinates": [ 30299.803800, 31788.049000 ] } }
,
{ "type": "Feature", "properties": { "OBJECTID": "159", "HYPERLINK": "www.hotel81.com.sg", "DESCRIPTIO": "", "POSTALCODE": "427452", "NAME": "Hotel 81 - Sakura", "ADDRESS": "181 Joo Chiat Road", "INC_CRC": "04E13F8309CE828B", "FMEL_UPD_D": "07\/24\/2014", "X_ADDR": "3.54778090000e+004", "Y_ADDR": "3.27321863000e+004" }, "geometry": { "type": "Point", "coordinates": [ 35477.809000, 32732.186300 ] } }
,
{ "type": "Feature", "properties": { "OBJECTID": "160", "HYPERLINK": "www.hotel81.com.sg", "DESCRIPTIO": "", "POSTALCODE": "188318", "NAME": "Hotel 81 - Selegie", "ADDRESS": "161 Selegie Road", "INC_CRC": "6CC30AB041CB61F2", "FMEL_UPD_D": "07\/24\/2014", "X_ADDR": "2.98435937000e+004", "Y_ADDR": "3.17360925000e+004" }, "geometry": { "type": "Point", "coordinates": [ 29843.593700, 31736.092600 ] } }
,
{ "type": "Feature", "properties": { "OBJECTID": "161", "HYPERLINK": "www.hotel81.com.sg", "DESCRIPTIO": "", "POSTALCODE": "388619", "NAME": "Hotel 81 - Spring", "ADDRESS": "22 Lorong 15 Geylang", "INC_CRC": "DAA3995620C188D1", "FMEL_UPD_D": "07\/24\/2014", "X_ADDR": "3.30026690000e+004", "Y_ADDR": "3.28859280000e+004" }, "geometry": { "type": "Point", "coordinates": [ 33002.669100, 32885.928100 ] } }
,
{ "type": "Feature", "properties": { "OBJECTID": "162", "HYPERLINK": "www.hotel81.com.sg", "DESCRIPTIO": "", "POSTALCODE": "398828", "NAME": "Hotel 81 - Star", "ADDRESS": "31 Lorong 18 Geylang", "INC_CRC": "C232BF9C87728F9F", "FMEL_UPD_D": "07\/24\/2014", "X_ADDR": "3.32909683000e+004", "Y_ADDR": "3.26562969000e+004" }, "geometry": { "type": "Point", "coordinates": [ 33290.968400, 32656.296900 ] } }
,
{ "type": "Feature", "properties": { "OBJECTID": "163", "HYPERLINK": "www.hotel81.com.sg", "DESCRIPTIO": "", "POSTALCODE": "424780", "NAME": "Hotel 81 - Tristar", "ADDRESS": "1 Onan Road", "INC_CRC": "CAB2AD63D9982B84", "FMEL_UPD_D": "07\/24\/2014", "X_ADDR": "3.51339282000e+004", "Y_ADDR": "3.31077454000e+004" }, "geometry": { "type": "Point", "coordinates": [ 35133.928300, 33107.745400 ] } }
,
{ "type": "Feature", "properties": { "OBJECTID": "164", "HYPERLINK": "www.hotel81.com.sg", "DESCRIPTIO": "", "POSTALCODE": "338722", "NAME": "Hotel 81 - Violet", "ADDRESS": "97 Lavender Street", "INC_CRC": "9CB918D0D9AB7053", "FMEL_UPD_D": "07\/24\/2014", "X_ADDR": "3.12102300000e+004", "Y_ADDR": "3.25967592000e+004" }, "geometry": { "type": "Point", "coordinates": [ 31210.230000, 32596.759300 ] } }
,
{ "type": "Feature", "properties": { "OBJECTID": "165", "HYPERLINK": "NA", "DESCRIPTIO": "", "POSTALCODE": "399035", "NAME": "Hotel Ascendere", "ADDRESS": "1 Lorong 10 Geylang", "INC_CRC": "0EFC89D7BF344F55", "FMEL_UPD_D": "07\/24\/2014", "X_ADDR": "3.29435972000e+004", "Y_ADDR": "3.26913520000e+004" }, "geometry": { "type": "Point", "coordinates": [ 32943.597300, 32691.352000 ] } }
,
{ "type": "Feature", "properties": { "OBJECTID": "166", "HYPERLINK": "www.hotelbencoolen.com", "DESCRIPTIO": "", "POSTALCODE": "189626", "NAME": "Hotel Bencoolen", "ADDRESS": "47 Bencoolen Street", "INC_CRC": "E9FEDF4149819664", "FMEL_UPD_D": "07\/24\/2014", "X_ADDR": "2.98685395000e+004", "Y_ADDR": "3.12829900000e+004" }, "geometry": { "type": "Point", "coordinates": [ 29868.539600, 31282.990000 ] } }
,
{ "type": "Feature", "properties": { "OBJECTID": "167", "HYPERLINK": "www.hotelclover.com.sg", "DESCRIPTIO": "", "POSTALCODE": "198737", "NAME": "Hotel Clover", "ADDRESS": "769, 771, 773 & 775 North Bridge Road", "INC_CRC": "017FAAAFA31BCD80", "FMEL_UPD_D": "07\/24\/2014", "X_ADDR": "3.09231975000e+004", "Y_ADDR": "3.17788712000e+004" }, "geometry": { "type": "Point", "coordinates": [ 30923.197600, 31778.871200 ] } }
,
{ "type": "Feature", "properties": { "OBJECTID": "168", "HYPERLINK": "www.hotelclover5hongkongstreet.com", "DESCRIPTIO": "", "POSTALCODE": "059648", "NAME": "Hotel Clover 5 Hongkong Street", "ADDRESS": "5 Hongkong Street", "INC_CRC": "FD0759CAA1F49CAD", "FMEL_UPD_D": "07\/24\/2014", "X_ADDR": "2.96162126000e+004", "Y_ADDR": "2.99831469000e+004" }, "geometry": { "type": "Point", "coordinates": [ 29616.212600, 29983.146900 ] } }
,
{ "type": "Feature", "properties": { "OBJECTID": "169", "HYPERLINK": "www.hotelcloverthearts.com", "DESCRIPTIO": "", "POSTALCODE": "058689", "NAME": "Hotel Clover The Arts", "ADDRESS": "58 South Bridge Road", "INC_CRC": "546ED6D3EC578AF8", "FMEL_UPD_D": "07\/24\/2014", "X_ADDR": "2.96496489000e+004", "Y_ADDR": "2.99953384000e+004" }, "geometry": { "type": "Point", "coordinates": [ 29649.648900, 29995.338400 ] } }
,
{ "type": "Feature", "properties": { "OBJECTID": "170", "HYPERLINK": "NA", "DESCRIPTIO": "", "POSTALCODE": "398693", "NAME": "Hotel Compass", "ADDRESS": "36 Lorong 22 Geylang", "INC_CRC": "C275393966F96B4B", "FMEL_UPD_D": "07\/24\/2014", "X_ADDR": "3.34026721000e+004", "Y_ADDR": "3.25898193000e+004" }, "geometry": { "type": "Point", "coordinates": [ 33402.672100, 32589.819400 ] } }
,
{ "type": "Feature", "properties": { "OBJECTID": "171", "HYPERLINK": "www.hfcsingapore.com", "DESCRIPTIO": "", "POSTALCODE": "178881", "NAME": "Hotel Fort Canning", "ADDRESS": "11 Canning Walk", "INC_CRC": "6945BDCBA81FDEFF", "FMEL_UPD_D": "07\/24\/2014", "X_ADDR": "2.93403333000e+004", "Y_ADDR": "3.09099037000e+004" }, "geometry": { "type": "Point", "coordinates": [ 29340.333400, 30909.903800 ] } }
,
{ "type": "Feature", "properties": { "OBJECTID": "172", "HYPERLINK": "", "DESCRIPTIO": "", "POSTALCODE": "399541", "NAME": "Hotel Fuji", "ADDRESS": "22 Jalan Molek", "INC_CRC": "3627C46E3BB082E3", "FMEL_UPD_D": "07\/24\/2014", "X_ADDR": "3.34930913000e+004", "Y_ADDR": "3.26673176000e+004" }, "geometry": { "type": "Point", "coordinates": [ 33493.091300, 32667.317600 ] } }
,
{ "type": "Feature", "properties": { "OBJECTID": "173", "HYPERLINK": "www.grandcentral.com.sg", "DESCRIPTIO": "", "POSTALCODE": "219924", "NAME": "Hotel Grand Chancellor", "ADDRESS": "3 Belilios Road", "INC_CRC": "FB4E4FE7AF78860C", "FMEL_UPD_D": "07\/24\/2014", "X_ADDR": "3.00711305000e+004", "Y_ADDR": "3.22946309000e+004" }, "geometry": { "type": "Point", "coordinates": [ 30071.130500, 32294.631000 ] } }
,
{ "type": "Feature", "properties": { "OBJECTID": "174", "HYPERLINK": "www.hotelgrandpacific.com.sg", "DESCRIPTIO": "", "POSTALCODE": "188018", "NAME": "Hotel Grand Pacific", "ADDRESS": "101 Victoria Street", "INC_CRC": "6B8B52B32189DCA5", "FMEL_UPD_D": "07\/24\/2014", "X_ADDR": "3.01467681000e+004", "Y_ADDR": "3.10737261000e+004" }, "geometry": { "type": "Point", "coordinates": [ 30146.768200, 31073.726200 ] } }
,
{ "type": "Feature", "properties": { "OBJECTID": "175", "HYPERLINK": "www.hotelhamilton.com.sg", "DESCRIPTIO": "", "POSTALCODE": "209210", "NAME": "Hotel Hamilton", "ADDRESS": "40 Hamilton Road", "INC_CRC": "00E5F6833F88AF0D", "FMEL_UPD_D": "07\/24\/2014", "X_ADDR": "3.11386884000e+004", "Y_ADDR": "3.26491328000e+004" }, "geometry": { "type": "Point", "coordinates": [ 31138.688400, 32649.132900 ] } }
,
{ "type": "Feature", "properties": { "OBJECTID": "176", "HYPERLINK": "www.hotelkai.com", "DESCRIPTIO": "", "POSTALCODE": "188593", "NAME": "Hotel Kai", "ADDRESS": "14 Purvis Street", "INC_CRC": "38C0275F7EF6FDEE", "FMEL_UPD_D": "07\/24\/2014", "X_ADDR": "3.04580590000e+004", "Y_ADDR": "3.09883223000e+004" }, "geometry": { "type": "Point", "coordinates": [ 30458.059000, 30988.322400 ] } }
,
{ "type": "Feature", "properties": { "OBJECTID": "177", "HYPERLINK": "www.rwsentosa.com", "DESCRIPTIO": "", "POSTALCODE": "098269", "NAME": "Hotel Michael", "ADDRESS": "8 Sentosa Gateway", "INC_CRC": "92FCC9B608916D9F", "FMEL_UPD_D": "07\/24\/2014", "X_ADDR": "2.65465798000e+004", "Y_ADDR": "2.63976914000e+004" }, "geometry": { "type": "Point", "coordinates": [ 26546.579800, 26397.691400 ] } }
,
{ "type": "Feature", "properties": { "OBJECTID": "178", "HYPERLINK": "www.urbanhostel.com.sg", "DESCRIPTIO": "", "POSTALCODE": "388189", "NAME": "Urban Hostel", "ADDRESS": "67A Lorong 27 Geylang", "INC_CRC": "2B4A9986985EC17F", "FMEL_UPD_D": "07\/24\/2014", "X_ADDR": "3.36095864000e+004", "Y_ADDR": "3.31561761000e+004" }, "geometry": { "type": "Point", "coordinates": [ 33609.586400, 33156.176100 ] } }
,
{ "type": "Feature", "properties": { "OBJECTID": "179", "HYPERLINK": "www.miramar.com.sg", "DESCRIPTIO": "", "POSTALCODE": "169631", "NAME": "Hotel Miramar Singapore", "ADDRESS": "401 Havelock Road", "INC_CRC": "9D20A5C128B75EBB", "FMEL_UPD_D": "07\/24\/2014", "X_ADDR": "2.84558914000e+004", "Y_ADDR": "3.00703317000e+004" }, "geometry": { "type": "Point", "coordinates": [ 28455.891500, 30070.331700 ] } }
,
{ "type": "Feature", "properties": { "OBJECTID": "180", "HYPERLINK": "www.hotelroyal.com", "DESCRIPTIO": "", "POSTALCODE": "307964", "NAME": "Hotel Royal", "ADDRESS": "36 Newton Road", "INC_CRC": "BE42059971ED1EF4", "FMEL_UPD_D": "07\/24\/2014", "X_ADDR": "2.89505202000e+004", "Y_ADDR": "3.32339580000e+004" }, "geometry": { "type": "Point", "coordinates": [ 28950.520200, 33233.958000 ] } }
,
{ "type": "Feature", "properties": { "OBJECTID": "181", "HYPERLINK": "www.royalqueens.com.sg", "DESCRIPTIO": "", "POSTALCODE": "188553", "NAME": "Hotel Royal @ Queens", "ADDRESS": "12 Queen Street", "INC_CRC": "6FECBC79C44941E4", "FMEL_UPD_D": "07\/24\/2014", "X_ADDR": "3.00938892000e+004", "Y_ADDR": "3.10993882000e+004" }, "geometry": { "type": "Point", "coordinates": [ 30093.889200, 31099.388300 ] } }
,
{ "type": "Feature", "properties": { "OBJECTID": "182", "HYPERLINK": "www.supremeh.com.sg", "DESCRIPTIO": "", "POSTALCODE": "228750", "NAME": "Hotel Supreme", "ADDRESS": "15 Kramat Road", "INC_CRC": "8B11295FC4D6E76D", "FMEL_UPD_D": "07\/24\/2014", "X_ADDR": "2.90134334000e+004", "Y_ADDR": "3.15210154000e+004" }, "geometry": { "type": "Point", "coordinates": [ 29013.433400, 31521.015500 ] } }
,
{ "type": "Feature", "properties": { "OBJECTID": "183", "HYPERLINK": "NA", "DESCRIPTIO": "", "POSTALCODE": "389525", "NAME": "Hup Hoe Hotel", "ADDRESS": "586A Geylang Road", "INC_CRC": "C5F2B0E43F4951E1", "FMEL_UPD_D": "07\/24\/2014", "X_ADDR": "3.40392593000e+004", "Y_ADDR": "3.29170999000e+004" }, "geometry": { "type": "Point", "coordinates": [ 34039.259400, 32917.100000 ] } }
,
{ "type": "Feature", "properties": { "OBJECTID": "184", "HYPERLINK": "NA", "DESCRIPTIO": "", "POSTALCODE": "329543", "NAME": "Ibis Singapore Novena", "ADDRESS": "6 Irrawaddy Road", "INC_CRC": "07E74BF6A1012087", "FMEL_UPD_D": "07\/24\/2014", "X_ADDR": "2.93606831000e+004", "Y_ADDR": "3.42642129000e+004" }, "geometry": { "type": "Point", "coordinates": [ 29360.683200, 34264.213000 ] } }
,
{ "type": "Feature", "properties": { "OBJECTID": "185", "HYPERLINK": "www.ibishotel.com", "DESCRIPTIO": "", "POSTALCODE": "189657", "NAME": "Ibis Singapore on Bencoolen", "ADDRESS": "170 Bencoolen Street", "INC_CRC": "4E7E5F0BCD103E23", "FMEL_UPD_D": "07\/24\/2014", "X_ADDR": "3.01261139000e+004", "Y_ADDR": "3.14794254000e+004" }, "geometry": { "type": "Point", "coordinates": [ 30126.113900, 31479.425400 ] } }
,
{ "type": "Feature", "properties": { "OBJECTID": "186", "HYPERLINK": "", "DESCRIPTIO": "", "POSTALCODE": "389200", "NAME": "Ideal Backpackers Hostel, Kallang", "ADDRESS": "83B, 85B, 87B & 89B Geylang Road", "INC_CRC": "79EF20381FA53AFF", "FMEL_UPD_D": "07\/24\/2014", "X_ADDR": "3.24114724000e+004", "Y_ADDR": "3.25714471000e+004" }, "geometry": { "type": "Point", "coordinates": [ 32411.472400, 32571.447100 ] } }
,
{ "type": "Feature", "properties": { "OBJECTID": "187", "HYPERLINK": "www.innotelhotel.com.sg", "DESCRIPTIO": "", "POSTALCODE": "238485", "NAME": "Innotel Hotel", "ADDRESS": "11 Penang Lane", "INC_CRC": "99EF669781B08B1D", "FMEL_UPD_D": "07\/24\/2014", "X_ADDR": "2.92388989000e+004", "Y_ADDR": "3.11142602000e+004" }, "geometry": { "type": "Point", "coordinates": [ 29238.898900, 31114.260300 ] } }
,
{ "type": "Feature", "properties": { "OBJECTID": "188", "HYPERLINK": "www.intercontinental.com", "DESCRIPTIO": "", "POSTALCODE": "188966", "NAME": "InterContinental Singapore", "ADDRESS": "80 Middle Road", "INC_CRC": "EAE23141BF5DA886", "FMEL_UPD_D": "07\/24\/2014", "X_ADDR": "3.03981429000e+004", "Y_ADDR": "3.12037061000e+004" }, "geometry": { "type": "Point", "coordinates": [ 30398.142900, 31203.706200 ] } }
,
{ "type": "Feature", "properties": { "OBJECTID": "189", "HYPERLINK": "", "DESCRIPTIO": "", "POSTALCODE": "058764", "NAME": "istay.inn", "ADDRESS": "211A, 213A, 215A & 217A South Bridge Road", "INC_CRC": "D9A2AB9A635A7AAC", "FMEL_UPD_D": "07\/24\/2014", "X_ADDR": "2.94028912000e+004", "Y_ADDR": "2.94911941000e+004" }, "geometry": { "type": "Point", "coordinates": [ 29402.891200, 29491.194100 ] } }
,
{ "type": "Feature", "properties": { "OBJECTID": "190", "HYPERLINK": "www.J8hotel.com", "DESCRIPTIO": "", "POSTALCODE": "207606", "NAME": "J8 Hotel", "ADDRESS": "8 Townshend Road", "INC_CRC": "C0279374321FF7AB", "FMEL_UPD_D": "07\/24\/2014", "X_ADDR": "3.08047392000e+004", "Y_ADDR": "3.22240847000e+004" }, "geometry": { "type": "Point", "coordinates": [ 30804.739300, 32224.084800 ] } }
,
{ "type": "Feature", "properties": { "OBJECTID": "191", "HYPERLINK": "NA", "DESCRIPTIO": "", "POSTALCODE": "399535", "NAME": "Jade Hotel", "ADDRESS": "18 Jalan Molek", "INC_CRC": "623B80E0AD1FF07D", "FMEL_UPD_D": "07\/24\/2014", "X_ADDR": "3.35041297000e+004", "Y_ADDR": "3.26680029000e+004" }, "geometry": { "type": "Point", "coordinates": [ 33504.129700, 32668.002900 ] } }
,
{ "type": "Feature", "properties": { "OBJECTID": "192", "HYPERLINK": "www.jayleen1918.com.sg", "DESCRIPTIO": "", "POSTALCODE": "059921", "NAME": "Jayleen 1918 Hotel", "ADDRESS": "42 Carpenter Street", "INC_CRC": "FED015AE769765E0", "FMEL_UPD_D": "07\/24\/2014", "X_ADDR": "2.96264266000e+004", "Y_ADDR": "3.00224879000e+004" }, "geometry": { "type": "Point", "coordinates": [ 29626.426700, 30022.488000 ] } }
,
{ "type": "Feature", "properties": { "OBJECTID": "193", "HYPERLINK": "NA", "DESCRIPTIO": "", "POSTALCODE": "399007", "NAME": "Jin Dong Hotel", "ADDRESS": "33 Lorong 12 Geylang", "INC_CRC": "E622FEF2D21753C4", "FMEL_UPD_D": "07\/24\/2014", "X_ADDR": "3.30624030000e+004", "Y_ADDR": "3.25038373000e+004" }, "geometry": { "type": "Point", "coordinates": [ 33062.403100, 32503.837300 ] } }
,
{ "type": "Feature", "properties": { "OBJECTID": "194", "HYPERLINK": "joyfor.com.sg", "DESCRIPTIO": "", "POSTALCODE": "389226", "NAME": "Joyfor Singapore", "ADDRESS": "135 Geylang Road", "INC_CRC": "40E680C3A248EB48", "FMEL_UPD_D": "07\/24\/2014", "X_ADDR": "3.25230061000e+004", "Y_ADDR": "3.26095114000e+004" }, "geometry": { "type": "Point", "coordinates": [ 32523.006200, 32609.511500 ] } }
,
{ "type": "Feature", "properties": { "OBJECTID": "195", "HYPERLINK": "www.pinehostel.com", "DESCRIPTIO": "", "POSTALCODE": "207566", "NAME": "Just Inn Pine", "ADDRESS": "153A Tyrwhitt Road", "INC_CRC": "E59811817DA17909", "FMEL_UPD_D": "07\/24\/2014", "X_ADDR": "3.09926347000e+004", "Y_ADDR": "3.26897829000e+004" }, "geometry": { "type": "Point", "coordinates": [ 30992.634700, 32689.782900 ] } }
,
{ "type": "Feature", "properties": { "OBJECTID": "196", "HYPERLINK": "www.kamleng.com", "DESCRIPTIO": "", "POSTALCODE": "209001", "NAME": "Kam Leng Hotel", "ADDRESS": "383 Jalan Besar", "INC_CRC": "FB2092B8019CDC6F", "FMEL_UPD_D": "07\/24\/2014", "X_ADDR": "3.09359452000e+004", "Y_ADDR": "3.28352075000e+004" }, "geometry": { "type": "Point", "coordinates": [ 30935.945300, 32835.207600 ] } }
,
{ "type": "Feature", "properties": { "OBJECTID": "197", "HYPERLINK": "", "DESCRIPTIO": "", "POSTALCODE": "209352", "NAME": "Kawan Hostel", "ADDRESS": "24, 26 & 28 Dunlop Street", "INC_CRC": "8E5F9E4AAA3CA079", "FMEL_UPD_D": "07\/24\/2014", "X_ADDR": "3.03114889000e+004", "Y_ADDR": "3.18871131000e+004" }, "geometry": { "type": "Point", "coordinates": [ 30311.488900, 31887.113200 ] } }
,
{ "type": "Feature", "properties": { "OBJECTID": "198", "HYPERLINK": "", "DESCRIPTIO": "", "POSTALCODE": "219178", "NAME": "Kerbau Hotel", "ADDRESS": "54 - 62 Kerbau Road", "INC_CRC": "3E24F8E4430FF3A4", "FMEL_UPD_D": "07\/24\/2014", "X_ADDR": "2.99483706000e+004", "Y_ADDR": "3.22073467000e+004" }, "geometry": { "type": "Point", "coordinates": [ 29948.370700, 32207.346800 ] } }
,
{ "type": "Feature", "properties": { "OBJECTID": "199", "HYPERLINK": "NA", "DESCRIPTIO": "", "POSTALCODE": "399166", "NAME": "Kim Tian (Star) Hotel", "ADDRESS": "4 Lorong 6 Geylang", "INC_CRC": "6524B850ADE49CA9", "FMEL_UPD_D": "07\/24\/2014", "X_ADDR": "3.27767855000e+004", "Y_ADDR": "3.26374379000e+004" }, "geometry": { "type": "Point", "coordinates": [ 32776.785500, 32637.438000 ] } }
,
{ "type": "Feature", "properties": { "OBJECTID": "200", "HYPERLINK": "NA", "DESCRIPTIO": "", "POSTALCODE": "398678", "NAME": "Kim Tian Hotel", "ADDRESS": "21 Lorong 22 Geylang", "INC_CRC": "B2F693C7DF20C564", "FMEL_UPD_D": "07\/24\/2014", "X_ADDR": "3.34688328000e+004", "Y_ADDR": "3.27062339000e+004" }, "geometry": { "type": "Point", "coordinates": [ 33468.832900, 32706.234000 ] } }
,
{ "type": "Feature", "properties": { "OBJECTID": "201", "HYPERLINK": "", "DESCRIPTIO": "", "POSTALCODE": "399281", "NAME": "Kim Tian Hotel (Han)", "ADDRESS": "29 Lorong 4 Geylang", "INC_CRC": "DB3AEEDDDE54A40B", "FMEL_UPD_D": "07\/24\/2014", "X_ADDR": "3.27725943000e+004", "Y_ADDR": "3.24965763000e+004" }, "geometry": { "type": "Point", "coordinates": [ 32772.594300, 32496.576300 ] } }
,
{ "type": "Feature", "properties": { "OBJECTID": "202", "HYPERLINK": "www.klapsons.com", "DESCRIPTIO": "", "POSTALCODE": "089316", "NAME": "Klapsons The Boutique Hotel", "ADDRESS": "15 Hoe Chiang Road #01-01", "INC_CRC": "189C182557DC660F", "FMEL_UPD_D": "07\/24\/2014", "X_ADDR": "2.89537877000e+004", "Y_ADDR": "2.84587244000e+004" }, "geometry": { "type": "Point", "coordinates": [ 28953.787700, 28458.724400 ] } }
,
{ "type": "Feature", "properties": { "OBJECTID": "203", "HYPERLINK": "", "DESCRIPTIO": "", "POSTALCODE": "399050", "NAME": "La Mode (Sophia)", "ADDRESS": "17 Lorong 10 Geylang", "INC_CRC": "B2144A96699C61FB", "FMEL_UPD_D": "07\/24\/2014", "X_ADDR": "3.29572664000e+004", "Y_ADDR": "3.26171643000e+004" }, "geometry": { "type": "Point", "coordinates": [ 32957.266400, 32617.164300 ] } }
,
{ "type": "Feature", "properties": { "OBJECTID": "204", "HYPERLINK": "", "DESCRIPTIO": "", "POSTALCODE": "389396", "NAME": "Lai Ming Hotel", "ADDRESS": "432 Geylang Road", "INC_CRC": "404002E2BEBC724C", "FMEL_UPD_D": "07\/24\/2014", "X_ADDR": "3.35436076000e+004", "Y_ADDR": "3.28125536000e+004" }, "geometry": { "type": "Point", "coordinates": [ 33543.607700, 32812.553600 ] } }
,
{ "type": "Feature", "properties": { "OBJECTID": "205", "HYPERLINK": "www.hotelre.com.sg", "DESCRIPTIO": "", "POSTALCODE": "169879", "NAME": "Hotel Re! @ Pearl's Hill", "ADDRESS": "175A Chin Swee Road", "INC_CRC": "3DAC7F6619D40D51", "FMEL_UPD_D": "07\/24\/2014", "X_ADDR": "2.85663295000e+004", "Y_ADDR": "2.97596313000e+004" }, "geometry": { "type": "Point", "coordinates": [ 28566.329500, 29759.631300 ] } }
,
{ "type": "Feature", "properties": { "OBJECTID": "206", "HYPERLINK": "www.laiminghotel.com.sg", "DESCRIPTIO": "", "POSTALCODE": "389395", "NAME": "Lai Ming Hotel Cosmoland", "ADDRESS": "424 Geylang Road", "INC_CRC": "662F1091099D5019", "FMEL_UPD_D": "07\/24\/2014", "X_ADDR": "3.35154649000e+004", "Y_ADDR": "3.27941250000e+004" }, "geometry": { "type": "Point", "coordinates": [ 33515.464900, 32794.125100 ] } }
,
{ "type": "Feature", "properties": { "OBJECTID": "207", "HYPERLINK": "www.lehotel.com.sg", "DESCRIPTIO": "", "POSTALCODE": "059905", "NAME": "Le Hotel", "ADDRESS": "16 Carpenter Street", "INC_CRC": "90248C0CC767897A", "FMEL_UPD_D": "07\/24\/2014", "X_ADDR": "2.96177741000e+004", "Y_ADDR": "3.00842215000e+004" }, "geometry": { "type": "Point", "coordinates": [ 29617.774100, 30084.221600 ] } }
,
{ "type": "Feature", "properties": { "OBJECTID": "208", "HYPERLINK": "www.leperanakanhotel.com", "DESCRIPTIO": "", "POSTALCODE": "428996", "NAME": "Le Peranakan Hotel", "ADDRESS": "400 East Coast Road", "INC_CRC": "6F2A6AC958AC6BE1", "FMEL_UPD_D": "07\/24\/2014", "X_ADDR": "3.67610111000e+004", "Y_ADDR": "3.23347170000e+004" }, "geometry": { "type": "Point", "coordinates": [ 36761.011200, 32334.717000 ] } }
,
{ "type": "Feature", "properties": { "OBJECTID": "209", "HYPERLINK": "", "DESCRIPTIO": "", "POSTALCODE": "399073", "NAME": "Lex Hotel", "ADDRESS": "1 Lorong 8 Geylang", "INC_CRC": "595CB33E4EF640B2", "FMEL_UPD_D": "07\/24\/2014", "X_ADDR": "3.28796235000e+004", "Y_ADDR": "3.26789056000e+004" }, "geometry": { "type": "Point", "coordinates": [ 32879.623600, 32678.905600 ] } }
,
{ "type": "Feature", "properties": { "OBJECTID": "210", "HYPERLINK": "www.linkhotel.com.sg", "DESCRIPTIO": "", "POSTALCODE": "168733", "NAME": "Link Hotel", "ADDRESS": "50 & 51 Tiong Bahru Road", "INC_CRC": "F059E20A78ADEAA2", "FMEL_UPD_D": "07\/24\/2014", "X_ADDR": "2.81035954000e+004", "Y_ADDR": "2.97062567000e+004" }, "geometry": { "type": "Point", "coordinates": [ 28103.595500, 29706.256800 ] } }
,
{ "type": "Feature", "properties": { "OBJECTID": "211", "HYPERLINK": "www.lloydinn.com", "DESCRIPTIO": "", "POSTALCODE": "239091", "NAME": "Lloyd's Inn", "ADDRESS": "2 Lloyd Road", "INC_CRC": "F5DDDB75C9DD6C36", "FMEL_UPD_D": "07\/24\/2014", "X_ADDR": "2.87842999000e+004", "Y_ADDR": "3.10703373000e+004" }, "geometry": { "type": "Point", "coordinates": [ 28784.299900, 31070.337300 ] } }
,
{ "type": "Feature", "properties": { "OBJECTID": "212", "HYPERLINK": "", "DESCRIPTIO": "", "POSTALCODE": "209196", "NAME": "Lofi Inn @ Hamilton", "ADDRESS": "27 Hamilton Road", "INC_CRC": "A69831411FEB5291", "FMEL_UPD_D": "07\/24\/2014", "X_ADDR": "3.10834688000e+004", "Y_ADDR": "3.26638979000e+004" }, "geometry": { "type": "Point", "coordinates": [ 31083.468900, 32663.897900 ] } }
,
{ "type": "Feature", "properties": { "OBJECTID": "213", "HYPERLINK": "www.bpkers.com", "DESCRIPTIO": "", "POSTALCODE": "160146", "NAME": "Lotus Hostel", "ADDRESS": "146 Jalan Bukit Merah #1 -1088", "INC_CRC": "2E9FBE0C76DF06DE", "FMEL_UPD_D": "07\/24\/2014", "X_ADDR": "2.77209782000e+004", "Y_ADDR": "2.89235451000e+004" }, "geometry": { "type": "Point", "coordinates": [ 27720.978300, 28923.545200 ] } }
,
{ "type": "Feature", "properties": { "OBJECTID": "214", "HYPERLINK": "www.lulu-hotel.com", "DESCRIPTIO": "", "POSTALCODE": "058971", "NAME": "Lulu Hotel", "ADDRESS": "76A\/B & 78A\/B Smith Street", "INC_CRC": "9D2F292D55B99DA4", "FMEL_UPD_D": "07\/24\/2014", "X_ADDR": "2.90781266000e+004", "Y_ADDR": "2.95109988000e+004" }, "geometry": { "type": "Point", "coordinates": [ 29078.126600, 29510.998800 ] } }
,
{ "type": "Feature", "properties": { "OBJECTID": "215", "HYPERLINK": "www.m-hotel.com", "DESCRIPTIO": "", "POSTALCODE": "079908", "NAME": "M Hotel Singapore", "ADDRESS": "81 Anson Road", "INC_CRC": "B50EBA140A4D0032", "FMEL_UPD_D": "07\/24\/2014", "X_ADDR": "2.93065351000e+004", "Y_ADDR": "2.84634561000e+004" }, "geometry": { "type": "Point", "coordinates": [ 29306.535100, 28463.456200 ] } }
,
{ "type": "Feature", "properties": { "OBJECTID": "216", "HYPERLINK": "www.madrassingapore.com", "DESCRIPTIO": "", "POSTALCODE": "208422", "NAME": "Madras Hotel", "ADDRESS": "28, 30 & 32 Madras Street", "INC_CRC": "559C9AF4339AC727", "FMEL_UPD_D": "07\/24\/2014", "X_ADDR": "3.01914713000e+004", "Y_ADDR": "3.19187142000e+004" }, "geometry": { "type": "Point", "coordinates": [ 30191.471300, 31918.714300 ] } }
,
{ "type": "Feature", "properties": { "OBJECTID": "217", "HYPERLINK": "www.madrassingapore.com", "DESCRIPTIO": "", "POSTALCODE": "209012", "NAME": "Madras Hotel Eminence", "ADDRESS": "407 Jalan Besar", "INC_CRC": "C6BD47927F8B4CC6", "FMEL_UPD_D": "07\/24\/2014", "X_ADDR": "3.09444545000e+004", "Y_ADDR": "3.28985146000e+004" }, "geometry": { "type": "Point", "coordinates": [ 30944.454500, 32898.514700 ] } }
,
{ "type": "Feature", "properties": { "OBJECTID": "218", "HYPERLINK": "www.malacca.com.sg", "DESCRIPTIO": "", "POSTALCODE": "423988", "NAME": "Malacca Hotel", "ADDRESS": "97\/99 Still Road", "INC_CRC": "CE751342431967F2", "FMEL_UPD_D": "07\/24\/2014", "X_ADDR": "3.61284781000e+004", "Y_ADDR": "3.28682157000e+004" }, "geometry": { "type": "Point", "coordinates": [ 36128.478200, 32868.215700 ] } }
,
{ "type": "Feature", "properties": { "OBJECTID": "219", "HYPERLINK": "www.meritiushotels.com", "DESCRIPTIO": "", "POSTALCODE": "238867", "NAME": "Mandarin Orchard Singapore", "ADDRESS": "333 Orchard Road", "INC_CRC": "96462B87C7D301BA", "FMEL_UPD_D": "07\/24\/2014", "X_ADDR": "2.83363639000e+004", "Y_ADDR": "3.16011963000e+004" }, "geometry": { "type": "Point", "coordinates": [ 28336.363900, 31601.196400 ] } }
,
{ "type": "Feature", "properties": { "OBJECTID": "220", "HYPERLINK": "", "DESCRIPTIO": "", "POSTALCODE": "039797", "NAME": "Mandarin Oriental, Singapore", "ADDRESS": "5 Raffles Avenue, Marina Square", "INC_CRC": "FC42B109AF0957D8", "FMEL_UPD_D": "07\/24\/2014", "X_ADDR": "3.07828876000e+004", "Y_ADDR": "3.03402244000e+004" }, "geometry": { "type": "Point", "coordinates": [ 30782.887700, 30340.224400 ] } }
,
{ "type": "Feature", "properties": { "OBJECTID": "221", "HYPERLINK": "www.manhanttan.biz", "DESCRIPTIO": "", "POSTALCODE": "160052", "NAME": "Manhanttan Inn", "ADDRESS": "Blk 52 Chin Swee Road #02-35", "INC_CRC": "FFB8240C2D3A10C5", "FMEL_UPD_D": "07\/24\/2014", "X_ADDR": "2.89194387000e+004", "Y_ADDR": "2.99445968000e+004" }, "geometry": { "type": "Point", "coordinates": [ 28919.438800, 29944.596900 ] } }
,
{ "type": "Feature", "properties": { "OBJECTID": "222", "HYPERLINK": "www.marinabaysands.com", "DESCRIPTIO": "", "POSTALCODE": "018971", "NAME": "Marina Bay Sands Singapore", "ADDRESS": "1 Bayfront Avenue", "INC_CRC": "47927BFACF25D411", "FMEL_UPD_D": "07\/24\/2014", "X_ADDR": "3.10215169000e+004", "Y_ADDR": "2.94924289000e+004" }, "geometry": { "type": "Point", "coordinates": [ 31021.516900, 29492.429000 ] } }
,
{ "type": "Feature", "properties": { "OBJECTID": "223", "HYPERLINK": "www.meritushotels.com", "DESCRIPTIO": "", "POSTALCODE": "039594", "NAME": "Marina Mandarin", "ADDRESS": "6 Raffles Boulevard, Marina Square", "INC_CRC": "7B239E8977A067D7", "FMEL_UPD_D": "07\/24\/2014", "X_ADDR": "3.06363550000e+004", "Y_ADDR": "3.04280933000e+004" }, "geometry": { "type": "Point", "coordinates": [ 30636.355000, 30428.093400 ] } }
,
{ "type": "Feature", "properties": { "OBJECTID": "224", "HYPERLINK": "", "DESCRIPTIO": "", "POSTALCODE": "209588", "NAME": "Marrison @ Desker", "ADDRESS": "65 Desker Road", "INC_CRC": "54B97CFD4D190830", "FMEL_UPD_D": "07\/24\/2014", "X_ADDR": "3.04685456000e+004", "Y_ADDR": "3.23677063000e+004" }, "geometry": { "type": "Point", "coordinates": [ 30468.545700, 32367.706400 ] } }
,
{ "type": "Feature", "properties": { "OBJECTID": "225", "HYPERLINK": "NA", "DESCRIPTIO": "", "POSTALCODE": "189704", "NAME": "Marrison Hotel", "ADDRESS": "103 Beach Road", "INC_CRC": "2DC0891A1CA09E56", "FMEL_UPD_D": "07\/24\/2014", "X_ADDR": "3.06452736000e+004", "Y_ADDR": "3.11397160000e+004" }, "geometry": { "type": "Point", "coordinates": [ 30645.273600, 31139.716000 ] } }
,
{ "type": "Feature", "properties": { "OBJECTID": "226", "HYPERLINK": "www.mayoinn.com", "DESCRIPTIO": "", "POSTALCODE": "208786", "NAME": "Mayo Inn", "ADDRESS": "9 Jalan Besar", "INC_CRC": "0E68F46517500397", "FMEL_UPD_D": "07\/24\/2014", "X_ADDR": "3.03150663000e+004", "Y_ADDR": "3.18066630000e+004" }, "geometry": { "type": "Point", "coordinates": [ 30315.066400, 31806.663000 ] } }
,
{ "type": "Feature", "properties": { "OBJECTID": "227", "HYPERLINK": "NA", "DESCRIPTIO": "", "POSTALCODE": "389447", "NAME": "Meng Yew Hotel", "ADDRESS": "488 Geylang Road", "INC_CRC": "E9B73C7C483FCBA8", "FMEL_UPD_D": "07\/24\/2014", "X_ADDR": "3.37161401000e+004", "Y_ADDR": "3.28371000000e+004" }, "geometry": { "type": "Point", "coordinates": [ 33716.140100, 32837.100100 ] } }
,
{ "type": "Feature", "properties": { "OBJECTID": "228", "HYPERLINK": "www.mercurypac.com", "DESCRIPTIO": "", "POSTALCODE": "338714", "NAME": "Mercury Backpackers' Hostel", "ADDRESS": "57 Lavender Street", "INC_CRC": "D404EB8566684E64", "FMEL_UPD_D": "07\/24\/2014", "X_ADDR": "3.12997322000e+004", "Y_ADDR": "3.24769206000e+004" }, "geometry": { "type": "Point", "coordinates": [ 31299.732200, 32476.920600 ] } }
,
{ "type": "Feature", "properties": { "OBJECTID": "229", "HYPERLINK": "www.michaelsbackpackers.com", "DESCRIPTIO": "", "POSTALCODE": "338806", "NAME": "Michaels Backpackers", "ADDRESS": "292A Lavender Street", "INC_CRC": "289E4C7BC63C611C", "FMEL_UPD_D": "07\/24\/2014", "X_ADDR": "3.09838154000e+004", "Y_ADDR": "3.29976472000e+004" }, "geometry": { "type": "Point", "coordinates": [ 30983.815500, 32997.647300 ] } }
,
{ "type": "Feature", "properties": { "OBJECTID": "230", "HYPERLINK": "NA", "DESCRIPTIO": "", "POSTALCODE": "398676", "NAME": "Min Wah Hotel", "ADDRESS": "19 Lorong 22 Geylang", "INC_CRC": "751064CCEF48B6D3", "FMEL_UPD_D": "07\/24\/2014", "X_ADDR": "3.34691164000e+004", "Y_ADDR": "3.27219257000e+004" }, "geometry": { "type": "Point", "coordinates": [ 33469.116500, 32721.925800 ] } }
,
{ "type": "Feature", "properties": { "OBJECTID": "231", "HYPERLINK": "", "DESCRIPTIO": "", "POSTALCODE": "218163", "NAME": "Mitraa Inn", "ADDRESS": "531 Serangoon Road", "INC_CRC": "DEED4EC4269CB25A", "FMEL_UPD_D": "07\/24\/2014", "X_ADDR": "3.07206233000e+004", "Y_ADDR": "3.30398222000e+004" }, "geometry": { "type": "Point", "coordinates": [ 30720.623300, 33039.822200 ] } }
,
{ "type": "Feature", "properties": { "OBJECTID": "232", "HYPERLINK": "NA", "DESCRIPTIO": "", "POSTALCODE": "209757", "NAME": "MKS Backpackers' Hostel", "ADDRESS": "44 Cuff Road", "INC_CRC": "2151174F5B8FDF5B", "FMEL_UPD_D": "07\/24\/2014", "X_ADDR": "3.02487169000e+004", "Y_ADDR": "3.21244733000e+004" }, "geometry": { "type": "Point", "coordinates": [ 30248.716900, 32124.473300 ] } }
,
{ "type": "Feature", "properties": { "OBJECTID": "233", "HYPERLINK": "www.moevenpick-sentosa.com", "DESCRIPTIO": "", "POSTALCODE": "098679", "NAME": "Moevenpick Heritage Hotel Sentosa", "ADDRESS": "23 Beach View", "INC_CRC": "CE31F7513C1EA9F4", "FMEL_UPD_D": "07\/24\/2014", "X_ADDR": "2.64684945000e+004", "Y_ADDR": "2.62083724000e+004" }, "geometry": { "type": "Point", "coordinates": [ 26468.494500, 26208.372400 ] } }
,
{ "type": "Feature", "properties": { "OBJECTID": "234", "HYPERLINK": "www.monigalleryhostel.com", "DESCRIPTIO": "", "POSTALCODE": "338795", "NAME": "Moni Gallery Hostel", "ADDRESS": "263 & 265 Lavender Street", "INC_CRC": "7F3EBC0F866589F4", "FMEL_UPD_D": "07\/24\/2014", "X_ADDR": "3.08568679000e+004", "Y_ADDR": "3.30803981000e+004" }, "geometry": { "type": "Point", "coordinates": [ 30856.867900, 33080.398200 ] } }
,
{ "type": "Feature", "properties": { "OBJECTID": "235", "HYPERLINK": "www.moon.com.sg", "DESCRIPTIO": "", "POSTALCODE": "209507", "NAME": "Moon 23 Hotel", "ADDRESS": "23 Dickson Road", "INC_CRC": "122268DBFDEC6802", "FMEL_UPD_D": "07\/24\/2014", "X_ADDR": "3.03065893000e+004", "Y_ADDR": "3.19350815000e+004" }, "geometry": { "type": "Point", "coordinates": [ 30306.589300, 31935.081600 ] } }
,
{ "type": "Feature", "properties": { "OBJECTID": "236", "HYPERLINK": "", "DESCRIPTIO": "", "POSTALCODE": "218675", "NAME": "Mori Hostel", "ADDRESS": "429 Race Course Road", "INC_CRC": "1FC203F0BC188BF1", "FMEL_UPD_D": "07\/24\/2014", "X_ADDR": "3.07010856000e+004", "Y_ADDR": "3.31364188000e+004" }, "geometry": { "type": "Point", "coordinates": [ 30701.085700, 33136.418900 ] } }
,
{ "type": "Feature", "properties": { "OBJECTID": "237", "HYPERLINK": "www.naumihotel.com", "DESCRIPTIO": "", "POSTALCODE": "188396", "NAME": "Naumi", "ADDRESS": "41 Seah Street", "INC_CRC": "F95E49485361511E", "FMEL_UPD_D": "07\/24\/2014", "X_ADDR": "3.04331716000e+004", "Y_ADDR": "3.09160393000e+004" }, "geometry": { "type": "Point", "coordinates": [ 30433.171600, 30916.039300 ] } }
,
{ "type": "Feature", "properties": { "OBJECTID": "238", "HYPERLINK": "www.naumiliora.com", "DESCRIPTIO": "", "POSTALCODE": "089158", "NAME": "Naumi Liora", "ADDRESS": "55 Keong Saik Road", "INC_CRC": "5BEE0E911481ECDE", "FMEL_UPD_D": "07\/24\/2014", "X_ADDR": "2.89152400000e+004", "Y_ADDR": "2.92298900000e+004" }, "geometry": { "type": "Point", "coordinates": [ 28915.240000, 29229.890000 ] } }
,
{ "type": "Feature", "properties": { "OBJECTID": "239", "HYPERLINK": "www.capeinn-singapore.com", "DESCRIPTIO": "", "POSTALCODE": "168891", "NAME": "New Cape Inn", "ADDRESS": "3 Seng Poh Road", "INC_CRC": "BD6FCFCCF2948201", "FMEL_UPD_D": "07\/24\/2014", "X_ADDR": "2.80842818000e+004", "Y_ADDR": "2.97766893000e+004" }, "geometry": { "type": "Point", "coordinates": [ 28084.281900, 29776.689300 ] } }
,
{ "type": "Feature", "properties": { "OBJECTID": "240", "HYPERLINK": "NA", "DESCRIPTIO": "", "POSTALCODE": "389403", "NAME": "New Cathay Hotel (Geylang)", "ADDRESS": "443A Geylang Road", "INC_CRC": "7681A74604E47E19", "FMEL_UPD_D": "07\/24\/2014", "X_ADDR": "3.33896440000e+004", "Y_ADDR": "3.28365152000e+004" }, "geometry": { "type": "Point", "coordinates": [ 33389.644000, 32836.515200 ] } }
,
{ "type": "Feature", "properties": { "OBJECTID": "241", "HYPERLINK": "www.newhappyhotel.com.sg", "DESCRIPTIO": "", "POSTALCODE": "399042", "NAME": "New Happy Hotel", "ADDRESS": "9 Lorong 10 Geylang", "INC_CRC": "1B04D03A14D492DC", "FMEL_UPD_D": "07\/24\/2014", "X_ADDR": "3.29507655000e+004", "Y_ADDR": "3.26546890000e+004" }, "geometry": { "type": "Point", "coordinates": [ 32950.765600, 32654.689100 ] } }
,
{ "type": "Feature", "properties": { "OBJECTID": "242", "HYPERLINK": "www.newmajestichotel.com", "DESCRIPTIO": "", "POSTALCODE": "089845", "NAME": "New Majestic Hotel", "ADDRESS": "31-37 Bukit Pasoh Road", "INC_CRC": "BAECCED90EBB9B87", "FMEL_UPD_D": "07\/24\/2014", "X_ADDR": "2.87818468000e+004", "Y_ADDR": "2.90853647000e+004" }, "geometry": { "type": "Point", "coordinates": [ 28781.846800, 29085.364700 ] } }
,
{ "type": "Feature", "properties": { "OBJECTID": "243", "HYPERLINK": "www.valuehotel.com.sg", "DESCRIPTIO": "", "POSTALCODE": "329738", "NAME": "Value Hotel - Nice", "ADDRESS": "302 Balestier Road", "INC_CRC": "098B12CD14C5CBEE", "FMEL_UPD_D": "07\/24\/2014", "X_ADDR": "3.01351891000e+004", "Y_ADDR": "3.39542861000e+004" }, "geometry": { "type": "Point", "coordinates": [ 30135.189100, 33954.286100 ] } }
,
{ "type": "Feature", "properties": { "OBJECTID": "244", "HYPERLINK": "www.valuehotel.com.sg", "DESCRIPTIO": "", "POSTALCODE": "329901", "NAME": "Value Hotel - Thomson", "ADDRESS": "592 Balestier Road", "INC_CRC": "422A607F9FB9C603", "FMEL_UPD_D": "07\/24\/2014", "X_ADDR": "2.90462750000e+004", "Y_ADDR": "3.43535441000e+004" }, "geometry": { "type": "Point", "coordinates": [ 29046.275000, 34353.544200 ] } }
,
{ "type": "Feature", "properties": { "OBJECTID": "245", "HYPERLINK": "www.venuehotel.sg", "DESCRIPTIO": "", "POSTALCODE": "427556", "NAME": "Venue Hotel", "ADDRESS": "305 Joo Chiat Road", "INC_CRC": "832E549D4E9A415C", "FMEL_UPD_D": "07\/24\/2014", "X_ADDR": "3.56913300000e+004", "Y_ADDR": "3.24322185000e+004" }, "geometry": { "type": "Point", "coordinates": [ 35691.330100, 32432.218600 ] } }
,
{ "type": "Feature", "properties": { "OBJECTID": "246", "HYPERLINK": "www.santagrandhotels.com", "DESCRIPTIO": "", "POSTALCODE": "188016", "NAME": "Victoria Hotel", "ADDRESS": "87 & 89 Victoria Street", "INC_CRC": "F5B7F4616D6AB564", "FMEL_UPD_D": "07\/24\/2014", "X_ADDR": "3.01282867000e+004", "Y_ADDR": "3.10522420000e+004" }, "geometry": { "type": "Point", "coordinates": [ 30128.286700, 31052.242000 ] } }
,
{ "type": "Feature", "properties": { "OBJECTID": "247", "HYPERLINK": "www.stayvillage.com", "DESCRIPTIO": "", "POSTALCODE": "189971", "NAME": "Village Hotel Albert Court", "ADDRESS": "180 Albert Street", "INC_CRC": "A1306E49AF81252D", "FMEL_UPD_D": "07\/24\/2014", "X_ADDR": "2.99362487000e+004", "Y_ADDR": "3.18044505000e+004" }, "geometry": { "type": "Point", "coordinates": [ 29936.248700, 31804.450500 ] } }
,
{ "type": "Feature", "properties": { "OBJECTID": "248", "HYPERLINK": "www.stayvillage.com", "DESCRIPTIO": "", "POSTALCODE": "188061", "NAME": "Village Hotel Bugis", "ADDRESS": "390 Victoria Street", "INC_CRC": "BCB426E6A18503A0", "FMEL_UPD_D": "07\/24\/2014", "X_ADDR": "3.07099767000e+004", "Y_ADDR": "3.15861302000e+004" }, "geometry": { "type": "Point", "coordinates": [ 30709.976700, 31586.130200 ] } }
,
{ "type": "Feature", "properties": { "OBJECTID": "249", "HYPERLINK": "www.stayfareast.com", "DESCRIPTIO": "", "POSTALCODE": "508502", "NAME": "Village Hotel Changi", "ADDRESS": "1 Netheravon Road", "INC_CRC": "ECB1B31C7EC6FC5B", "FMEL_UPD_D": "07\/24\/2014", "X_ADDR": "4.49982641000e+004", "Y_ADDR": "4.13696660000e+004" }, "geometry": { "type": "Point", "coordinates": [ 44998.264100, 41369.666100 ] } }
,
{ "type": "Feature", "properties": { "OBJECTID": "250", "HYPERLINK": "www.stayvillage.com\/eastvillage", "DESCRIPTIO": "", "POSTALCODE": "449536", "NAME": "Village Hotel Katong", "ADDRESS": "25 Marine Parade Road", "INC_CRC": "012F46B04D71CE8F", "FMEL_UPD_D": "07\/24\/2014", "X_ADDR": "3.57451415000e+004", "Y_ADDR": "3.17909247000e+004" }, "geometry": { "type": "Point", "coordinates": [ 35745.141600, 31790.924800 ] } }
,
{ "type": "Feature", "properties": { "OBJECTID": "251", "HYPERLINK": "www.hotel81.com.sg", "DESCRIPTIO": "", "POSTALCODE": "419871", "NAME": "Hotel 81 - Changi", "ADDRESS": "428 Changi Road #01-01", "INC_CRC": "EE6F8B7621B649D0", "FMEL_UPD_D": "07\/24\/2014", "X_ADDR": "3.67263224000e+004", "Y_ADDR": "3.34398239000e+004" }, "geometry": { "type": "Point", "coordinates": [ 36726.322500, 33439.824000 ] } }
,
{ "type": "Feature", "properties": { "OBJECTID": "252", "HYPERLINK": "www.hotel81.com.sg", "DESCRIPTIO": "", "POSTALCODE": "399014", "NAME": "Hotel 81 - Cherry", "ADDRESS": "No 3 Lorong 12 Geylang", "INC_CRC": "3721FAEEB3BCBAF0", "FMEL_UPD_D": "07\/24\/2014", "X_ADDR": "3.30190684000e+004", "Y_ADDR": "3.26988857000e+004" }, "geometry": { "type": "Point", "coordinates": [ 33019.068400, 32698.885700 ] } }
,
{ "type": "Feature", "properties": { "OBJECTID": "253", "HYPERLINK": "www.hotel81.com.sg", "DESCRIPTIO": "", "POSTALCODE": "059418", "NAME": "Hotel 81 - Chinatown", "ADDRESS": "181 New Bridge Road", "INC_CRC": "A63F91F81F7D9287", "FMEL_UPD_D": "07\/24\/2014", "X_ADDR": "2.91997143000e+004", "Y_ADDR": "2.96660471000e+004" }, "geometry": { "type": "Point", "coordinates": [ 29199.714400, 29666.047200 ] } }
,
{ "type": "Feature", "properties": { "OBJECTID": "254", "HYPERLINK": "www.hotel81.com.sg", "DESCRIPTIO": "", "POSTALCODE": "427353", "NAME": "Hotel 81 - Classic", "ADDRESS": "12 Joo Chiat Road", "INC_CRC": "3721DC0F50B6EF62", "FMEL_UPD_D": "07\/24\/2014", "X_ADDR": "3.51665303000e+004", "Y_ADDR": "3.31019662000e+004" }, "geometry": { "type": "Point", "coordinates": [ 35166.530400, 33101.966300 ] } }
,
{ "type": "Feature", "properties": { "OBJECTID": "255", "HYPERLINK": "www.hotel81.com.sg", "DESCRIPTIO": "", "POSTALCODE": "089263", "NAME": "Hotel 81 - Cosy", "ADDRESS": "8 Jiak Chuan Road", "INC_CRC": "A922EA3513D95263", "FMEL_UPD_D": "07\/24\/2014", "X_ADDR": "2.89505279000e+004", "Y_ADDR": "2.91245866000e+004" }, "geometry": { "type": "Point", "coordinates": [ 28950.528000, 29124.586700 ] } }
,
{ "type": "Feature", "properties": { "OBJECTID": "256", "HYPERLINK": "www.hotel81.com.sg", "DESCRIPTIO": "", "POSTALCODE": "209530", "NAME": "Hotel 81 - Dickson", "ADDRESS": "3 Dickson Road", "INC_CRC": "9B3EB29BD2DB8632", "FMEL_UPD_D": "07\/24\/2014", "X_ADDR": "3.03316278000e+004", "Y_ADDR": "3.19152349000e+004" }, "geometry": { "type": "Point", "coordinates": [ 30331.627900, 31915.235000 ] } }
,
{ "type": "Feature", "properties": { "OBJECTID": "257", "HYPERLINK": "www.hotel81.com.sg", "DESCRIPTIO": "", "POSTALCODE": "209276", "NAME": "Hotel 81 - Elegance", "ADDRESS": "30 Foch Road #01-01", "INC_CRC": "D22E571217E8D108", "FMEL_UPD_D": "07\/24\/2014", "X_ADDR": "3.09996862000e+004", "Y_ADDR": "3.27418232000e+004" }, "geometry": { "type": "Point", "coordinates": [ 30999.686200, 32741.823200 ] } }
,
{ "type": "Feature", "properties": { "OBJECTID": "258", "HYPERLINK": "www.hotel81.com.sg", "DESCRIPTIO": "", "POSTALCODE": "329720", "NAME": "Hotel 81 - Fuji", "ADDRESS": "269 Balestier Road", "INC_CRC": "0299AEF44181839D", "FMEL_UPD_D": "07\/24\/2014", "X_ADDR": "3.01458931000e+004", "Y_ADDR": "3.38258895000e+004" }, "geometry": { "type": "Point", "coordinates": [ 30145.893100, 33825.889600 ] } }
,
{ "type": "Feature", "properties": { "OBJECTID": "259", "HYPERLINK": "www.hotel81.com.sg", "DESCRIPTIO": "", "POSTALCODE": "398863", "NAME": "Hotel 81 - Geylang", "ADDRESS": "20 Lorong 16 Geylang", "INC_CRC": "EC81FCF445BA9196", "FMEL_UPD_D": "07\/24\/2014", "X_ADDR": "3.31468269000e+004", "Y_ADDR": "3.26761831000e+004" }, "geometry": { "type": "Point", "coordinates": [ 33146.827000, 32676.183200 ] } }
,
{ "type": "Feature", "properties": { "OBJECTID": "260", "HYPERLINK": "www.hotel81.com.sg", "DESCRIPTIO": "", "POSTALCODE": "398738", "NAME": "Hotel 81 - Gold", "ADDRESS": "20 Lorong 20 Geylang", "INC_CRC": "52A40AA994A6EFC4", "FMEL_UPD_D": "07\/24\/2014", "X_ADDR": "3.33200844000e+004", "Y_ADDR": "3.26950454000e+004" }, "geometry": { "type": "Point", "coordinates": [ 33320.084400, 32695.045500 ] } }
,
{ "type": "Feature", "properties": { "OBJECTID": "261", "HYPERLINK": "www.hotel81.com.sg", "DESCRIPTIO": "", "POSTALCODE": "198985", "NAME": "Hotel 81 - Heritage", "ADDRESS": "71 Jalan Sultan Road", "INC_CRC": "BC61298CFB4D28DC", "FMEL_UPD_D": "07\/24\/2014", "X_ADDR": "3.11140647000e+004", "Y_ADDR": "3.16732598000e+004" }, "geometry": { "type": "Point", "coordinates": [ 31114.064800, 31673.259900 ] } }
,
{ "type": "Feature", "properties": { "OBJECTID": "262", "HYPERLINK": "www.hotel81.com.sg", "DESCRIPTIO": "", "POSTALCODE": "399121", "NAME": "Hotel 81 - Hollywood", "ADDRESS": "61 Lorong 8 Geylang", "INC_CRC": "073069D56B40E0D7", "FMEL_UPD_D": "07\/24\/2014", "X_ADDR": "3.29111628000e+004", "Y_ADDR": "3.24848802000e+004" }, "geometry": { "type": "Point", "coordinates": [ 32911.162900, 32484.880200 ] } }
,
{ "type": "Feature", "properties": { "OBJECTID": "263", "HYPERLINK": "www.hotel81.com.sg", "DESCRIPTIO": "", "POSTALCODE": "388703", "NAME": "Hotel 81 - Joy", "ADDRESS": "11 Lorong 11 Geylang", "INC_CRC": "ED5994C649AB8EE8", "FMEL_UPD_D": "07\/24\/2014", "X_ADDR": "3.28447593000e+004", "Y_ADDR": "3.27922105000e+004" }, "geometry": { "type": "Point", "coordinates": [ 32844.759400, 32792.210500 ] } }
,
{ "type": "Feature", "properties": { "OBJECTID": "264", "HYPERLINK": "www.hotel81.com.sg", "DESCRIPTIO": "", "POSTALCODE": "534636", "NAME": "Hotel 81 - Kovan", "ADDRESS": "768 Upper Serangoon Road #02-01", "INC_CRC": "9C7AF02EAACC1A6F", "FMEL_UPD_D": "07\/24\/2014", "X_ADDR": "3.30712411000e+004", "Y_ADDR": "3.73646634000e+004" }, "geometry": { "type": "Point", "coordinates": [ 33071.241100, 37364.663400 ] } }
,
{ "type": "Feature", "properties": { "OBJECTID": "265", "HYPERLINK": "www.hotel81.com.sg", "DESCRIPTIO": "", "POSTALCODE": "338716", "NAME": "Hotel 81 - Lavender", "ADDRESS": "85 Lavender Street", "INC_CRC": "DD42B692EC603D9A", "FMEL_UPD_D": "07\/24\/2014", "X_ADDR": "3.12311083000e+004", "Y_ADDR": "3.25624778000e+004" }, "geometry": { "type": "Point", "coordinates": [ 31231.108300, 32562.477800 ] } }
,
{ "type": "Feature", "properties": { "OBJECTID": "266", "HYPERLINK": "www.hotel81.com.sg", "DESCRIPTIO": "", "POSTALCODE": "398741", "NAME": "Hotel 81 - Lucky", "ADDRESS": "23 Lorong 20 Geylang", "INC_CRC": "9FDAB37AC6111649", "FMEL_UPD_D": "07\/24\/2014", "X_ADDR": "3.33619007000e+004", "Y_ADDR": "3.26865561000e+004" }, "geometry": { "type": "Point", "coordinates": [ 33361.900700, 32686.556200 ] } }
,
{ "type": "Feature", "properties": { "OBJECTID": "267", "HYPERLINK": "www.hotel81.com.sg", "DESCRIPTIO": "", "POSTALCODE": "427495", "NAME": "Hotel 81 - Opera", "ADDRESS": "238 Joo Chiat Road", "INC_CRC": "25782641F7AF3AE3", "FMEL_UPD_D": "07\/24\/2014", "X_ADDR": "3.54858227000e+004", "Y_ADDR": "3.26499120000e+004" }, "geometry": { "type": "Point", "coordinates": [ 35485.822700, 32649.912000 ] } }
,
{ "type": "Feature", "properties": { "OBJECTID": "268", "HYPERLINK": "www.hotel81.com.sg", "DESCRIPTIO": "", "POSTALCODE": "399090", "NAME": "Hotel 81 - Orchid", "ADDRESS": "21 Lorong 8 Geylang", "INC_CRC": "667082AD5681C821", "FMEL_UPD_D": "07\/24\/2014", "X_ADDR": "3.28922389000e+004", "Y_ADDR": "3.26104186000e+004" }, "geometry": { "type": "Point", "coordinates": [ 32892.238900, 32610.418600 ] } }
,
{ "type": "Feature", "properties": { "OBJECTID": "269", "HYPERLINK": "www.hotel81.com.sg", "DESCRIPTIO": "", "POSTALCODE": "169753", "NAME": "Hotel 81 - Osaka", "ADDRESS": "1 Eng Hoon Street", "INC_CRC": "51473818D733DE54", "FMEL_UPD_D": "07\/24\/2014", "X_ADDR": "2.81834210000e+004", "Y_ADDR": "2.95334849000e+004" }, "geometry": { "type": "Point", "coordinates": [ 28183.421000, 29533.485000 ] } }
,
{ "type": "Feature", "properties": { "OBJECTID": "270", "HYPERLINK": "www.hotel81.com.sg", "DESCRIPTIO": "", "POSTALCODE": "398867", "NAME": "Hotel 81 - Palace", "ADDRESS": "25 Lorong 16 Geylang", "INC_CRC": "8C49F13091C5924C", "FMEL_UPD_D": "07\/24\/2014", "X_ADDR": "3.32084523000e+004", "Y_ADDR": "3.26767968000e+004" }, "geometry": { "type": "Point", "coordinates": [ 33208.452400, 32676.796800 ] } }
,
{ "type": "Feature", "properties": { "OBJECTID": "271", "HYPERLINK": "www.goodwoodparkhotel.com", "DESCRIPTIO": "", "POSTALCODE": "228221", "NAME": "Goodwood Park Hotel", "ADDRESS": "22 Scotts Road", "INC_CRC": "6FE6C9FF48990410", "FMEL_UPD_D": "07\/24\/2014", "X_ADDR": "2.80879742000e+004", "Y_ADDR": "3.22820764000e+004" }, "geometry": { "type": "Point", "coordinates": [ 28087.974200, 32282.076400 ] } }
,
{ "type": "Feature", "properties": { "OBJECTID": "272", "HYPERLINK": "", "DESCRIPTIO": "", "POSTALCODE": "208532", "NAME": "Grand C Hotel", "ADDRESS": "165 Kitchener Road", "INC_CRC": "BFFA1B593C4F3226", "FMEL_UPD_D": "07\/24\/2014", "X_ADDR": "3.05557801000e+004", "Y_ADDR": "3.25311028000e+004" }, "geometry": { "type": "Point", "coordinates": [ 30555.780200, 32531.102800 ] } }
,
{ "type": "Feature", "properties": { "OBJECTID": "273", "HYPERLINK": "www.grandcopthorne.com.sg", "DESCRIPTIO": "", "POSTALCODE": "169663", "NAME": "Grand Copthorne Waterfront Hotel Singapore", "ADDRESS": "392 Havelock Road", "INC_CRC": "3085D892DA72334D", "FMEL_UPD_D": "07\/24\/2014", "X_ADDR": "2.82072357000e+004", "Y_ADDR": "3.02983838000e+004" }, "geometry": { "type": "Point", "coordinates": [ 28207.235800, 30298.383800 ] } }
,
{ "type": "Feature", "properties": { "OBJECTID": "274", "HYPERLINK": "www.singapore.grand.hyatt.com", "DESCRIPTIO": "", "POSTALCODE": "228211", "NAME": "Grand Hyatt Singapore", "ADDRESS": "10 - 12 Scotts Road", "INC_CRC": "4DEBA93E8AF1DF10", "FMEL_UPD_D": "07\/24\/2014", "X_ADDR": "2.79960773000e+004", "Y_ADDR": "3.20745483000e+004" }, "geometry": { "type": "Point", "coordinates": [ 27996.077400, 32074.548400 ] } }
,
{ "type": "Feature", "properties": { "OBJECTID": "275", "HYPERLINK": "www.grandmercureroxy.com.sg", "DESCRIPTIO": "", "POSTALCODE": "428769", "NAME": "Grand Mercure Roxy Hotel", "ADDRESS": "50 East Coast Road", "INC_CRC": "F47061098A808749", "FMEL_UPD_D": "07\/24\/2014", "X_ADDR": "3.58718860000e+004", "Y_ADDR": "3.18513716000e+004" }, "geometry": { "type": "Point", "coordinates": [ 35871.886100, 31851.371600 ] } }
,
{ "type": "Feature", "properties": { "OBJECTID": "276", "HYPERLINK": "www.parkhotelgroup.com\/gpch\/", "DESCRIPTIO": "", "POSTALCODE": "179809", "NAME": "Grand Park City Hall", "ADDRESS": "10 Coleman Street", "INC_CRC": "FF17453D68713439", "FMEL_UPD_D": "07\/24\/2014", "X_ADDR": "2.98702898000e+004", "Y_ADDR": "3.05578671000e+004" }, "geometry": { "type": "Point", "coordinates": [ 29870.289800, 30557.867100 ] } }
,
{ "type": "Feature", "properties": { "OBJECTID": "277", "HYPERLINK": "www.parkhotelgroup.com\/gpor\/", "DESCRIPTIO": "", "POSTALCODE": "238857", "NAME": "Grand Park Orchard", "ADDRESS": "270 Orchard Road", "INC_CRC": "25F80CC601CE7609", "FMEL_UPD_D": "07\/24\/2014", "X_ADDR": "2.83211619000e+004", "Y_ADDR": "3.17168892000e+004" }, "geometry": { "type": "Point", "coordinates": [ 28321.162000, 31716.889300 ] } }
,
{ "type": "Feature", "properties": { "OBJECTID": "278", "HYPERLINK": "", "DESCRIPTIO": "", "POSTALCODE": "208804", "NAME": "Grand U Hotel", "ADDRESS": "43A, 43B, 43C Jalan Besar", "INC_CRC": "0FB98089BBDFF734", "FMEL_UPD_D": "07\/24\/2014", "X_ADDR": "3.03750322000e+004", "Y_ADDR": "3.18971506000e+004" }, "geometry": { "type": "Point", "coordinates": [ 30375.032200, 31897.150700 ] } }
,
{ "type": "Feature", "properties": { "OBJECTID": "279", "HYPERLINK": "www.gustibnb.com", "DESCRIPTIO": "", "POSTALCODE": "208188", "NAME": "Gusti Bed and Breakfast", "ADDRESS": "30 A, B & C Penhas Road", "INC_CRC": "C2D76246A478B7D8", "FMEL_UPD_D": "07\/24\/2014", "X_ADDR": "3.12164890000e+004", "Y_ADDR": "3.24486697000e+004" }, "geometry": { "type": "Point", "coordinates": [ 31216.489100, 32448.669700 ] } }
,
{ "type": "Feature", "properties": { "OBJECTID": "280", "HYPERLINK": "www.haising.com.sg", "DESCRIPTIO": "", "POSTALCODE": "208801", "NAME": "Haising Hotel", "ADDRESS": "33A. 33B, 33C, 35A,35B,35C,37A,37B & 37C Jalan Besar", "INC_CRC": "03C0C6144C674C17", "FMEL_UPD_D": "07\/24\/2014", "X_ADDR": "3.03662779000e+004", "Y_ADDR": "3.18838688000e+004" }, "geometry": { "type": "Point", "coordinates": [ 30366.278000, 31883.868900 ] } }
,
{ "type": "Feature", "properties": { "OBJECTID": "281", "HYPERLINK": "www.hangouthotels.com", "DESCRIPTIO": "", "POSTALCODE": "228119", "NAME": "Hangout @ Mt. Emily", "ADDRESS": "10A Upper Wilkie Road", "INC_CRC": "DA43FB9EA2C09583", "FMEL_UPD_D": "07\/24\/2014", "X_ADDR": "2.96168339000e+004", "Y_ADDR": "3.17451447000e+004" }, "geometry": { "type": "Point", "coordinates": [ 29616.833900, 31745.144700 ] } }
,
{ "type": "Feature", "properties": { "OBJECTID": "282", "HYPERLINK": "www.harbourvillehotel.com", "DESCRIPTIO": "", "POSTALCODE": "099448", "NAME": "Harbour Ville Hotel", "ADDRESS": "512 Kampong Bahru Road", "INC_CRC": "A5D6B47D98542ED2", "FMEL_UPD_D": "07\/24\/2014", "X_ADDR": "2.73796721000e+004", "Y_ADDR": "2.83447155000e+004" }, "geometry": { "type": "Point", "coordinates": [ 27379.672100, 28344.715500 ] } }
,
{ "type": "Feature", "properties": { "OBJECTID": "283", "HYPERLINK": "www.rwsentosa.com", "DESCRIPTIO": "", "POSTALCODE": "098139", "NAME": "Hard Rock Hotel", "ADDRESS": "28 Sentosa Gateway", "INC_CRC": "249AC7690EE59C88", "FMEL_UPD_D": "07\/24\/2014", "X_ADDR": "2.63968624000e+004", "Y_ADDR": "2.66697094000e+004" }, "geometry": { "type": "Point", "coordinates": [ 26396.862500, 26669.709400 ] } }
,
{ "type": "Feature", "properties": { "OBJECTID": "284", "HYPERLINK": "www.heritagehostel.net", "DESCRIPTIO": "", "POSTALCODE": "058837", "NAME": "Heritage Hostel", "ADDRESS": "293 South Bridge Road", "INC_CRC": "D3A3BD331784F455", "FMEL_UPD_D": "07\/24\/2014", "X_ADDR": "2.93020990000e+004", "Y_ADDR": "2.93137280000e+004" }, "geometry": { "type": "Point", "coordinates": [ 29302.099000, 29313.728000 ] } }
,
{ "type": "Feature", "properties": { "OBJECTID": "285", "HYPERLINK": "www.singapore.hilton.com", "DESCRIPTIO": "", "POSTALCODE": "238883", "NAME": "Hilton Singapore", "ADDRESS": "581 Orchard Road", "INC_CRC": "ED818A6C7445C499", "FMEL_UPD_D": "07\/24\/2014", "X_ADDR": "2.75544270000e+004", "Y_ADDR": "3.20229869000e+004" }, "geometry": { "type": "Point", "coordinates": [ 27554.427000, 32022.987000 ] } }
,
{ "type": "Feature", "properties": { "OBJECTID": "286", "HYPERLINK": "holidayinnexpress.com", "DESCRIPTIO": "", "POSTALCODE": "059573", "NAME": "Holiday Inn Express Singapore Clarke Quay", "ADDRESS": "2 Magazine Road", "INC_CRC": "D39141F1B73033C8", "FMEL_UPD_D": "07\/24\/2014", "X_ADDR": "2.89643803000e+004", "Y_ADDR": "3.01835758000e+004" }, "geometry": { "type": "Point", "coordinates": [ 28964.380300, 30183.575900 ] } }
,
{ "type": "Feature", "properties": { "OBJECTID": "287", "HYPERLINK": "", "DESCRIPTIO": "", "POSTALCODE": "229921", "NAME": "Holiday Inn Express Singapore Orchard Road", "ADDRESS": "20 Bideford Road", "INC_CRC": "25DF575382D32081", "FMEL_UPD_D": "07\/24\/2014", "X_ADDR": "2.83741359000e+004", "Y_ADDR": "3.17298455000e+004" }, "geometry": { "type": "Point", "coordinates": [ 28374.135900, 31729.845600 ] } }
,
{ "type": "Feature", "properties": { "OBJECTID": "288", "HYPERLINK": "www.holiday-inn.com\/atrium-sin", "DESCRIPTIO": "", "POSTALCODE": "169075", "NAME": "Holiday Inn Singapore Atrium", "ADDRESS": "317 Outram Road", "INC_CRC": "F1E1C55D98D5742B", "FMEL_UPD_D": "07\/24\/2014", "X_ADDR": "2.80834365000e+004", "Y_ADDR": "3.01643528000e+004" }, "geometry": { "type": "Point", "coordinates": [ 28083.436600, 30164.352800 ] } }
,
{ "type": "Feature", "properties": { "OBJECTID": "289", "HYPERLINK": "www.holidayinn.com\/hotels\/us\/en\/singapore\/sinpv\/hoteldetail", "DESCRIPTIO": "", "POSTALCODE": "229616", "NAME": "Holiday Inn Singapore Orchard City Centre", "ADDRESS": "11 Cavenagh Road", "INC_CRC": "B9D2A2CD280E7391", "FMEL_UPD_D": "07\/24\/2014", "X_ADDR": "2.88661780000e+004", "Y_ADDR": "3.16249296000e+004" }, "geometry": { "type": "Point", "coordinates": [ 28866.178000, 31624.929600 ] } }
,
{ "type": "Feature", "properties": { "OBJECTID": "290", "HYPERLINK": "", "DESCRIPTIO": "", "POSTALCODE": "399167", "NAME": "Home Suite Hotel 6", "ADDRESS": "5 Lorong 6 Geylang", "INC_CRC": "56D432199A9175D7", "FMEL_UPD_D": "07\/24\/2014", "X_ADDR": "3.28269090000e+004", "Y_ADDR": "3.25802133000e+004" }, "geometry": { "type": "Point", "coordinates": [ 32826.909000, 32580.213300 ] } }
,
{ "type": "Feature", "properties": { "OBJECTID": "291", "HYPERLINK": "NA", "DESCRIPTIO": "", "POSTALCODE": "329706", "NAME": "Hoover Hotel", "ADDRESS": "246 Balestier Road #02-01", "INC_CRC": "DC3D9545C1FAAD7D", "FMEL_UPD_D": "07\/24\/2014", "X_ADDR": "3.01980957000e+004", "Y_ADDR": "3.37727490000e+004" }, "geometry": { "type": "Point", "coordinates": [ 30198.095700, 33772.749100 ] } }
,
{ "type": "Feature", "properties": { "OBJECTID": "292", "HYPERLINK": "www.hostellah.com", "DESCRIPTIO": "", "POSTALCODE": "338731", "NAME": "Hostel Lah", "ADDRESS": "119A Lavender Street", "INC_CRC": "FCE04689036577C4", "FMEL_UPD_D": "07\/24\/2014", "X_ADDR": "3.11407309000e+004", "Y_ADDR": "3.26888967000e+004" }, "geometry": { "type": "Point", "coordinates": [ 31140.731000, 32688.896700 ] } }
,
{ "type": "Feature", "properties": { "OBJECTID": "293", "HYPERLINK": "", "DESCRIPTIO": "", "POSTALCODE": "398993", "NAME": "Hotel 101", "ADDRESS": "12 Lorong 12 Geylang", "INC_CRC": "DFCEC429B9A75846", "FMEL_UPD_D": "07\/24\/2014", "X_ADDR": "3.29861109000e+004", "Y_ADDR": "3.26336065000e+004" }, "geometry": { "type": "Point", "coordinates": [ 32986.111000, 32633.606600 ] } }
,
{ "type": "Feature", "properties": { "OBJECTID": "294", "HYPERLINK": "www.hotel1929.com", "DESCRIPTIO": "", "POSTALCODE": "089154", "NAME": "Hotel 1929", "ADDRESS": "50 Keong Saik Road", "INC_CRC": "D3081EFB46DCD844", "FMEL_UPD_D": "07\/24\/2014", "X_ADDR": "2.89452090000e+004", "Y_ADDR": "2.92492081000e+004" }, "geometry": { "type": "Point", "coordinates": [ 28945.209100, 29249.208100 ] } }
,
{ "type": "Feature", "properties": { "OBJECTID": "295", "HYPERLINK": "", "DESCRIPTIO": "", "POSTALCODE": "398691", "NAME": "Hotel 34", "ADDRESS": "34 Lorong 22 Geylang", "INC_CRC": "B906CEAA0A65B175", "FMEL_UPD_D": "07\/24\/2014", "X_ADDR": "3.34024183000e+004", "Y_ADDR": "3.26076951000e+004" }, "geometry": { "type": "Point", "coordinates": [ 33402.418300, 32607.695100 ] } }
,
{ "type": "Feature", "properties": { "OBJECTID": "296", "HYPERLINK": "www.hotel81.com.sg", "DESCRIPTIO": "", "POSTALCODE": "329688", "NAME": "Hotel 81 - Balestier", "ADDRESS": "226 Balestier Road", "INC_CRC": "506156C4F24F2590", "FMEL_UPD_D": "07\/24\/2014", "X_ADDR": "3.02041174000e+004", "Y_ADDR": "3.37369723000e+004" }, "geometry": { "type": "Point", "coordinates": [ 30204.117500, 33736.972300 ] } }
,
{ "type": "Feature", "properties": { "OBJECTID": "297", "HYPERLINK": "www.hotel81.com.sg", "DESCRIPTIO": "", "POSTALCODE": "189623", "NAME": "Hotel 81 - Bencoolen", "ADDRESS": "41 Bencoolen Street", "INC_CRC": "AF2BFEFDF89ED70F", "FMEL_UPD_D": "07\/24\/2014", "X_ADDR": "2.98552599000e+004", "Y_ADDR": "3.12621436000e+004" }, "geometry": { "type": "Point", "coordinates": [ 29855.260000, 31262.143600 ] } }
,
{ "type": "Feature", "properties": { "OBJECTID": "298", "HYPERLINK": "www.hotel81.com.sg", "DESCRIPTIO": "", "POSTALCODE": "188995", "NAME": "Hotel 81 - Bugis", "ADDRESS": "31 Middle Road", "INC_CRC": "AA893A446142B9BB", "FMEL_UPD_D": "07\/24\/2014", "X_ADDR": "3.04817977000e+004", "Y_ADDR": "3.10277706000e+004" }, "geometry": { "type": "Point", "coordinates": [ 30481.797700, 31027.770600 ] } }
,
{ "type": "Feature", "properties": { "OBJECTID": "299", "HYPERLINK": "", "DESCRIPTIO": "", "POSTALCODE": "049864", "NAME": "5footway.inn Project Boat Quay", "ADDRESS": "73 - 76 Boat Quay", "INC_CRC": "7DE06A1C2B745FC8", "FMEL_UPD_D": "07\/24\/2014", "X_ADDR": "2.97670070000e+004", "Y_ADDR": "3.00683663000e+004" }, "geometry": { "type": "Point", "coordinates": [ 29767.007000, 30068.366400 ] } }
,
{ "type": "Feature", "properties": { "OBJECTID": "300", "HYPERLINK": "www.5footwayinn.com", "DESCRIPTIO": "", "POSTALCODE": "199901", "NAME": "5footway.inn Project Bugis", "ADDRESS": "8, 10 & 12 Aliwal Street", "INC_CRC": "BD5C9FA57E00F30F", "FMEL_UPD_D": "07\/24\/2014", "X_ADDR": "3.11293075000e+004", "Y_ADDR": "3.15921576000e+004" }, "geometry": { "type": "Point", "coordinates": [ 31129.307500, 31592.157600 ] } }
,
{ "type": "Feature", "properties": { "OBJECTID": "301", "HYPERLINK": "www.5footwayinn.com", "DESCRIPTIO": "", "POSTALCODE": "059222", "NAME": "5footway.inn Project Chinatown 1", "ADDRESS": "61A\/B & 63A\/B Pagoda Street", "INC_CRC": "EA40C8F6D4D479EB", "FMEL_UPD_D": "07\/24\/2014", "X_ADDR": "2.91780173000e+004", "Y_ADDR": "2.95428538000e+004" }, "geometry": { "type": "Point", "coordinates": [ 29178.017300, 29542.853800 ] } }
,
{ "type": "Feature", "properties": { "OBJECTID": "302", "HYPERLINK": "www.5footwayinn.com", "DESCRIPTIO": "", "POSTALCODE": "058778", "NAME": "5footway.inn Project Chinatown 2", "ADDRESS": "227 South Bridge Road", "INC_CRC": "675777253007763A", "FMEL_UPD_D": "07\/24\/2014", "X_ADDR": "2.93804623000e+004", "Y_ADDR": "2.94680723000e+004" }, "geometry": { "type": "Point", "coordinates": [ 29380.462400, 29468.072300 ] } }
,
{ "type": "Feature", "properties": { "OBJECTID": "303", "HYPERLINK": "www.5footwayinn.com", "DESCRIPTIO": "", "POSTALCODE": "059211", "NAME": "5footway.inn Project Chinatown 3", "ADDRESS": "52A Pagoda Street", "INC_CRC": "69ABC2949B1E790B", "FMEL_UPD_D": "07\/24\/2014", "X_ADDR": "2.92208003000e+004", "Y_ADDR": "2.95605396000e+004" }, "geometry": { "type": "Point", "coordinates": [ 29220.800300, 29560.539700 ] } }
,
{ "type": "Feature", "properties": { "OBJECTID": "304", "HYPERLINK": "www.5footwayinn.com", "DESCRIPTIO": "", "POSTALCODE": "059232", "NAME": "5footway.inn Project Chinatown 4", "ADDRESS": "73A Pagoda Street", "INC_CRC": "340BEB04639E03FC", "FMEL_UPD_D": "07\/24\/2014", "X_ADDR": "2.91562903000e+004", "Y_ADDR": "2.95554536000e+004" }, "geometry": { "type": "Point", "coordinates": [ 29156.290300, 29555.453600 ] } }
,
{ "type": "Feature", "properties": { "OBJECTID": "305", "HYPERLINK": "", "DESCRIPTIO": "", "POSTALCODE": "189694", "NAME": "85 Beach Garden Hotel", "ADDRESS": "85 Beach Road", "INC_CRC": "FC181EB75DD787E4", "FMEL_UPD_D": "07\/24\/2014", "X_ADDR": "3.05876682000e+004", "Y_ADDR": "3.10747358000e+004" }, "geometry": { "type": "Point", "coordinates": [ 30587.668200, 31074.735900 ] } }
,
{ "type": "Feature", "properties": { "OBJECTID": "306", "HYPERLINK": "www.abchostel.com.sg", "DESCRIPTIO": "", "POSTALCODE": "199201", "NAME": "ABC Hostel", "ADDRESS": "3 & 7 Jalan Kubor (1st Storey)", "INC_CRC": "00746CDA2A951B6C", "FMEL_UPD_D": "07\/24\/2014", "X_ADDR": "3.08897358000e+004", "Y_ADDR": "3.17796733000e+004" }, "geometry": { "type": "Point", "coordinates": [ 30889.735900, 31779.673400 ] } }
,
{ "type": "Feature", "properties": { "OBJECTID": "307", "HYPERLINK": "www.abchostelhamilton.com.sg", "DESCRIPTIO": "", "POSTALCODE": "209178", "NAME": "ABC Hostel Hamilton", "ADDRESS": "7A Hamilton Road", "INC_CRC": "D24C034844FF1518", "FMEL_UPD_D": "07\/24\/2014", "X_ADDR": "3.10447522000e+004", "Y_ADDR": "3.26325053000e+004" }, "geometry": { "type": "Point", "coordinates": [ 31044.752300, 32632.505300 ] } }
,
{ "type": "Feature", "properties": { "OBJECTID": "308", "HYPERLINK": "www.abcpremiumhostel.com.sg", "DESCRIPTIO": "", "POSTALCODE": "218903", "NAME": "ABC Premium Hostel", "ADDRESS": "91A, 93A & 95A Owen Road", "INC_CRC": "03B43DBA7F1D48EF", "FMEL_UPD_D": "07\/24\/2014", "X_ADDR": "3.02089057000e+004", "Y_ADDR": "3.28479684000e+004" }, "geometry": { "type": "Point", "coordinates": [ 30208.905700, 32847.968500 ] } }
,
{ "type": "Feature", "properties": { "OBJECTID": "309", "HYPERLINK": "", "DESCRIPTIO": "", "POSTALCODE": "199135", "NAME": "Adamson Inn", "ADDRESS": "3 Jalan Pinang", "INC_CRC": "3CEB156D606BDF4E", "FMEL_UPD_D": "07\/24\/2014", "X_ADDR": "3.07944556000e+004", "Y_ADDR": "3.16575338000e+004" }, "geometry": { "type": "Point", "coordinates": [ 30794.455700, 31657.533800 ] } }
,
{ "type": "Feature", "properties": { "OBJECTID": "310", "HYPERLINK": "www.hoteladonis.com", "DESCRIPTIO": "", "POSTALCODE": "188592", "NAME": "Adonis Hotel", "ADDRESS": "13 Purvis Street", "INC_CRC": "5B30F68FF1FA2621", "FMEL_UPD_D": "07\/24\/2014", "X_ADDR": "3.04502418000e+004", "Y_ADDR": "3.09874506000e+004" }, "geometry": { "type": "Point", "coordinates": [ 30450.241800, 30987.450600 ] } }
,
{ "type": "Feature", "properties": { "OBJECTID": "311", "HYPERLINK": "", "DESCRIPTIO": "", "POSTALCODE": "199948", "NAME": "Aliwal Park Hotel", "ADDRESS": "77 Aliwal Street", "INC_CRC": "CCCA7A9F857187FD", "FMEL_UPD_D": "07\/24\/2014", "X_ADDR": "3.09992336000e+004", "Y_ADDR": "3.17444902000e+004" }, "geometry": { "type": "Point", "coordinates": [ 30999.233700, 31744.490300 ] } }
,
{ "type": "Feature", "properties": { "OBJECTID": "312", "HYPERLINK": "www.amarasanctuary.com", "DESCRIPTIO": "", "POSTALCODE": "099394", "NAME": "Amara Sanctuary Resort, Sentosa", "ADDRESS": "1 Larkhill Road", "INC_CRC": "AB6871C568576CC5", "FMEL_UPD_D": "07\/24\/2014", "X_ADDR": "2.67421666000e+004", "Y_ADDR": "2.60794782000e+004" }, "geometry": { "type": "Point", "coordinates": [ 26742.166700, 26079.478300 ] } }
,
{ "type": "Feature", "properties": { "OBJECTID": "313", "HYPERLINK": "www.amarahotels.com", "DESCRIPTIO": "", "POSTALCODE": "088539", "NAME": "Amara Singapore", "ADDRESS": "165 Tanjong Pagar Road", "INC_CRC": "CE030EA0391E023F", "FMEL_UPD_D": "07\/24\/2014", "X_ADDR": "2.91386242000e+004", "Y_ADDR": "2.86005461000e+004" }, "geometry": { "type": "Point", "coordinates": [ 29138.624200, 28600.546200 ] } }
,
{ "type": "Feature", "properties": { "OBJECTID": "314", "HYPERLINK": "www.amarishotel.com", "DESCRIPTIO": "", "POSTALCODE": "188931", "NAME": "Amaris by Santika", "ADDRESS": "21 Middle Road", "INC_CRC": "19DB49688A58D5B5", "FMEL_UPD_D": "07\/24\/2014", "X_ADDR": "3.05061863000e+004", "Y_ADDR": "3.10096400000e+004" }, "geometry": { "type": "Point", "coordinates": [ 30506.186300, 31009.640000 ] } }
,
{ "type": "Feature", "properties": { "OBJECTID": "315", "HYPERLINK": "www.amberhotelsingapore.com", "DESCRIPTIO": "", "POSTALCODE": "439885", "NAME": "Amber Hotel", "ADDRESS": "42 Amber Road", "INC_CRC": "9BCB885B75FB5BAE", "FMEL_UPD_D": "07\/24\/2014", "X_ADDR": "3.55595713000e+004", "Y_ADDR": "3.14747565000e+004" }, "geometry": { "type": "Point", "coordinates": [ 35559.571300, 31474.756500 ] } }
,
{ "type": "Feature", "properties": { "OBJECTID": "316", "HYPERLINK": "www.amberhotelsingapore.com", "DESCRIPTIO": "", "POSTALCODE": "439878", "NAME": "Amber Hotel Katong", "ADDRESS": "40 Amber Road", "INC_CRC": "CB6AA5BB4E7B7C78", "FMEL_UPD_D": "07\/24\/2014", "X_ADDR": "3.55430395000e+004", "Y_ADDR": "3.14631807000e+004" }, "geometry": { "type": "Point", "coordinates": [ 35543.039600, 31463.180700 ] } }
,
{ "type": "Feature", "properties": { "OBJECTID": "317", "HYPERLINK": "www.stayfareast.com", "DESCRIPTIO": "", "POSTALCODE": "048464", "NAME": "Amoy Hotel", "ADDRESS": "76 Telok Ayer Street", "INC_CRC": "9A72D48CE4C53F6E", "FMEL_UPD_D": "07\/24\/2014", "X_ADDR": "2.96995981000e+004", "Y_ADDR": "2.94615847000e+004" }, "geometry": { "type": "Point", "coordinates": [ 29699.598100, 29461.584800 ] } }
,
{ "type": "Feature", "properties": { "OBJECTID": "318", "HYPERLINK": "NA", "DESCRIPTIO": "", "POSTALCODE": "387436", "NAME": "Amrise Hotel", "ADDRESS": "112 Sims Avenue #01-01", "INC_CRC": "21672E0A06B4F16F", "FMEL_UPD_D": "07\/24\/2014", "X_ADDR": "3.29583964000e+004", "Y_ADDR": "3.29124674000e+004" }, "geometry": { "type": "Point", "coordinates": [ 32958.396400, 32912.467500 ] } }
,
{ "type": "Feature", "properties": { "OBJECTID": "319", "HYPERLINK": "http:\/\/www.aqueenhotels.com\/", "DESCRIPTIO": "", "POSTALCODE": "208906", "NAME": "AQUEEN - Jalan Besar Hotel", "ADDRESS": "230 Jalan Besar", "INC_CRC": "0FF3227DCE2D6E28", "FMEL_UPD_D": "07\/24\/2014", "X_ADDR": "3.07498805000e+004", "Y_ADDR": "3.24002631000e+004" }, "geometry": { "type": "Point", "coordinates": [ 30749.880600, 32400.263200 ] } }
,
{ "type": "Feature", "properties": { "OBJECTID": "320", "HYPERLINK": "www.aqueenhotels.com", "DESCRIPTIO": "", "POSTALCODE": "329795", "NAME": "Aqueen Hotel - Balestier", "ADDRESS": "387 Balestier Road", "INC_CRC": "CFE0EF106858E5E1", "FMEL_UPD_D": "07\/24\/2014", "X_ADDR": "2.98471945000e+004", "Y_ADDR": "3.41622796000e+004" }, "geometry": { "type": "Point", "coordinates": [ 29847.194500, 34162.279700 ] } }
,
{ "type": "Feature", "properties": { "OBJECTID": "321", "HYPERLINK": "www.aqueenhotels.com", "DESCRIPTIO": "", "POSTALCODE": "338739", "NAME": "Aqueen Hotel - Lavender", "ADDRESS": "139 Lavender Street", "INC_CRC": "D9109E3A87EDAD51", "FMEL_UPD_D": "07\/24\/2014", "X_ADDR": "3.11013546000e+004", "Y_ADDR": "3.27379443000e+004" }, "geometry": { "type": "Point", "coordinates": [ 31101.354600, 32737.944400 ] } }
,
{ "type": "Feature", "properties": { "OBJECTID": "322", "HYPERLINK": "www.ariannahotel.com.sg", "DESCRIPTIO": "", "POSTALCODE": "207662", "NAME": "Arianna Hotel", "ADDRESS": "83 Syed Alwi Road", "INC_CRC": "158C215B00422832", "FMEL_UPD_D": "07\/24\/2014", "X_ADDR": "3.05148897000e+004", "Y_ADDR": "3.23661052000e+004" }, "geometry": { "type": "Point", "coordinates": [ 30514.889700, 32366.105200 ] } }
,
{ "type": "Feature", "properties": { "OBJECTID": "323", "HYPERLINK": "www.artonhotel.com", "DESCRIPTIO": "", "POSTALCODE": "207576", "NAME": "Arton Hotel", "ADDRESS": "176 Tyrwhitt Road", "INC_CRC": "1DE13F1058B0EA7D", "FMEL_UPD_D": "07\/24\/2014", "X_ADDR": "3.10646486000e+004", "Y_ADDR": "3.26998578000e+004" }, "geometry": { "type": "Point", "coordinates": [ 31064.648600, 32699.857900 ] } }
,
{ "type": "Feature", "properties": { "OBJECTID": "324", "HYPERLINK": "www.the-ascott.com", "DESCRIPTIO": "", "POSTALCODE": "049247", "NAME": "Ascott Singapore Raffles Place", "ADDRESS": "2 Finlayson Green", "INC_CRC": "9205D6CCE8A362CA", "FMEL_UPD_D": "07\/24\/2014", "X_ADDR": "3.00283849000e+004", "Y_ADDR": "2.93919235000e+004" }, "geometry": { "type": "Point", "coordinates": [ 30028.385000, 29391.923600 ] } }
,
{ "type": "Feature", "properties": { "OBJECTID": "325", "HYPERLINK": "www.asiastarhotel.com", "DESCRIPTIO": "", "POSTALCODE": "207995", "NAME": "Asia Star Hotel", "ADDRESS": "44 & 44A Rowell Road", "INC_CRC": "0ABCE9D88EE102A8", "FMEL_UPD_D": "07\/24\/2014", "X_ADDR": "3.03823914000e+004", "Y_ADDR": "3.23131489000e+004" }, "geometry": { "type": "Point", "coordinates": [ 30382.391500, 32313.148900 ] } }
,
{ "type": "Feature", "properties": { "OBJECTID": "326", "HYPERLINK": "www.asphoinn.com", "DESCRIPTIO": "", "POSTALCODE": "218702", "NAME": "Asphodel Inn", "ADDRESS": "380 (2nd to 4th Storey) Race Course Road", "INC_CRC": "F907CC914CEF9D2A", "FMEL_UPD_D": "07\/24\/2014", "X_ADDR": "3.06657358000e+004", "Y_ADDR": "3.30351853000e+004" }, "geometry": { "type": "Point", "coordinates": [ 30665.735900, 33035.185300 ] } }
,
{ "type": "Feature", "properties": { "OBJECTID": "327", "HYPERLINK": "www.b88hostel.com", "DESCRIPTIO": "", "POSTALCODE": "208852", "NAME": "b88 Hostel", "ADDRESS": "134 Jalan Besar", "INC_CRC": "EA8D3E57DCE345A0", "FMEL_UPD_D": "07\/24\/2014", "X_ADDR": "3.05688556000e+004", "Y_ADDR": "3.21122564000e+004" }, "geometry": { "type": "Point", "coordinates": [ 30568.855600, 32112.256400 ] } }
,
{ "type": "Feature", "properties": { "OBJECTID": "328", "HYPERLINK": "www.cozycomerguest.com", "DESCRIPTIO": "", "POSTALCODE": "188736", "NAME": "Backpacker Cozy Corner Guesthouse", "ADDRESS": "2nd & 3rd Storey, 490 & 492 North Bridge Road", "INC_CRC": "A6D7DAB81D71A702", "FMEL_UPD_D": "07\/24\/2014", "X_ADDR": "3.04993257000e+004", "Y_ADDR": "3.11927328000e+004" }, "geometry": { "type": "Point", "coordinates": [ 30499.325800, 31192.732900 ] } }
,
{ "type": "Feature", "properties": { "OBJECTID": "329", "HYPERLINK": "NA", "DESCRIPTIO": "", "POSTALCODE": "338734", "NAME": "Backpacker's Hostel @ The Little Red Dot", "ADDRESS": "125 Lavender Street", "INC_CRC": "D137468FFCCE30B9", "FMEL_UPD_D": "07\/24\/2014", "X_ADDR": "3.11306107000e+004", "Y_ADDR": "3.27045964000e+004" }, "geometry": { "type": "Point", "coordinates": [ 31130.610800, 32704.596400 ] } }
,
{ "type": "Feature", "properties": { "OBJECTID": "330", "HYPERLINK": "www.backpackersinn.com.sg", "DESCRIPTIO": "", "POSTALCODE": "059508", "NAME": "Backpackers Inn Chinatown", "ADDRESS": "30A Mosque Street", "INC_CRC": "D2B6C89C84A512E9", "FMEL_UPD_D": "07\/24\/2014", "X_ADDR": "2.93453885000e+004", "Y_ADDR": "2.95550585000e+004" }, "geometry": { "type": "Point", "coordinates": [ 29345.388500, 29555.058600 ] } }
,
{ "type": "Feature", "properties": { "OBJECTID": "331", "HYPERLINK": "www.bpsg.com.sg", "DESCRIPTIO": "", "POSTALCODE": "208559", "NAME": "Backpackers@sg", "ADDRESS": "111J\/P King George's Avenue", "INC_CRC": "ACD48F13A15AD3D8", "FMEL_UPD_D": "07\/24\/2014", "X_ADDR": "3.11602774000e+004", "Y_ADDR": "3.25153314000e+004" }, "geometry": { "type": "Point", "coordinates": [ 31160.277500, 32515.331500 ] } }
,
{ "type": "Feature", "properties": { "OBJECTID": "332", "HYPERLINK": "NA", "DESCRIPTIO": "", "POSTALCODE": "329842", "NAME": "Balestier Hotel", "ADDRESS": "471-A\/B\/C & 473-A\/B\/C Balestier Road", "INC_CRC": "6C79E0D4771C438C", "FMEL_UPD_D": "07\/24\/2014", "X_ADDR": "2.96144999000e+004", "Y_ADDR": "3.42845627000e+004" }, "geometry": { "type": "Point", "coordinates": [ 29614.499900, 34284.562800 ] } }
,
{ "type": "Feature", "properties": { "OBJECTID": "333", "HYPERLINK": "www.pillowsntoast.com", "DESCRIPTIO": "", "POSTALCODE": "058341", "NAME": "Pillows & Toast Heritage", "ADDRESS": "38 Upper Cross Street", "INC_CRC": "A529DD62AC853D3C", "FMEL_UPD_D": "07\/24\/2014", "X_ADDR": "2.92847993000e+004", "Y_ADDR": "2.96207128000e+004" }, "geometry": { "type": "Point", "coordinates": [ 29284.799300, 29620.712900 ] } }
,
{ "type": "Feature", "properties": { "OBJECTID": "334", "HYPERLINK": "www.plush-pods.com", "DESCRIPTIO": "", "POSTALCODE": "188091", "NAME": "Plush Pods", "ADDRESS": "2 Tan Quee Lan Street #02-01, #02-02 and #02-03", "INC_CRC": "F508B248C989B46B", "FMEL_UPD_D": "07\/24\/2014", "X_ADDR": "3.06282696000e+004", "Y_ADDR": "3.11519737000e+004" }, "geometry": { "type": "Point", "coordinates": [ 30628.269600, 31151.973800 ] } }
,
{ "type": "Feature", "properties": { "OBJECTID": "335", "HYPERLINK": "www.porcelainhotel.com", "DESCRIPTIO": "", "POSTALCODE": "059526", "NAME": "Porcelain Hotel", "ADDRESS": "48 Mosque Road", "INC_CRC": "4689EE2804D74AD8", "FMEL_UPD_D": "07\/24\/2014", "X_ADDR": "2.92205310000e+004", "Y_ADDR": "2.96302316000e+004" }, "geometry": { "type": "Point", "coordinates": [ 29220.531000, 29630.231700 ] } }
,
{ "type": "Feature", "properties": { "OBJECTID": "336", "HYPERLINK": "www.qualityhotelmarkow.com.sg", "DESCRIPTIO": "", "POSTALCODE": "329926", "NAME": "Quality Hotel Marlow", "ADDRESS": "201 Balestier Road", "INC_CRC": "EDE499478088D1DA", "FMEL_UPD_D": "07\/24\/2014", "X_ADDR": "3.01368996000e+004", "Y_ADDR": "3.35901548000e+004" }, "geometry": { "type": "Point", "coordinates": [ 30136.899600, 33590.154900 ] } }
,
{ "type": "Feature", "properties": { "OBJECTID": "337", "HYPERLINK": "", "DESCRIPTIO": "", "POSTALCODE": "049368", "NAME": "Quarters", "ADDRESS": "12 Circular Road", "INC_CRC": "C889C71C23D834C3", "FMEL_UPD_D": "07\/24\/2014", "X_ADDR": "2.97468800000e+004", "Y_ADDR": "3.00112300000e+004" }, "geometry": { "type": "Point", "coordinates": [ 29746.880100, 30011.230000 ] } }
,
{ "type": "Feature", "properties": { "OBJECTID": "338", "HYPERLINK": "www.raffleshotel.com", "DESCRIPTIO": "", "POSTALCODE": "189673", "NAME": "Raffles Hotel Singapore", "ADDRESS": "1 Beach Road", "INC_CRC": "BE5DCC862525A946", "FMEL_UPD_D": "07\/24\/2014", "X_ADDR": "3.03092675000e+004", "Y_ADDR": "3.08308198000e+004" }, "geometry": { "type": "Point", "coordinates": [ 30309.267500, 30830.819800 ] } }
,
{ "type": "Feature", "properties": { "OBJECTID": "339", "HYPERLINK": "ramada-dayshotelsingapore.com", "DESCRIPTIO": "", "POSTALCODE": "329983", "NAME": "Ramada Singapore at Zhongshan Park", "ADDRESS": "16 Ah Hood Road", "INC_CRC": "83872F8166BFD8D7", "FMEL_UPD_D": "07\/24\/2014", "X_ADDR": "2.94529650000e+004", "Y_ADDR": "3.43703958000e+004" }, "geometry": { "type": "Point", "coordinates": [ 29452.965100, 34370.395800 ] } }
,
{ "type": "Feature", "properties": { "OBJECTID": "340", "HYPERLINK": "www.reginhotel.com", "DESCRIPTIO": "", "POSTALCODE": "387416", "NAME": "Regin Hotel", "ADDRESS": "56 Sims Avenue", "INC_CRC": "D5F7C1783CD53387", "FMEL_UPD_D": "07\/24\/2014", "X_ADDR": "3.27382554000e+004", "Y_ADDR": "3.28387818000e+004" }, "geometry": { "type": "Point", "coordinates": [ 32738.255400, 32838.781800 ] } }
,
{ "type": "Feature", "properties": { "OBJECTID": "341", "HYPERLINK": "www.relcih.com.sg", "DESCRIPTIO": "", "POSTALCODE": "258352", "NAME": "RELC International Hotel", "ADDRESS": "30 Orange Grove Road", "INC_CRC": "5F1C25AF78D70FBB", "FMEL_UPD_D": "07\/24\/2014", "X_ADDR": "2.71890664000e+004", "Y_ADDR": "3.27925437000e+004" }, "geometry": { "type": "Point", "coordinates": [ 27189.066500, 32792.543700 ] } }
,
{ "type": "Feature", "properties": { "OBJECTID": "342", "HYPERLINK": "www.stayfareast.com", "DESCRIPTIO": "", "POSTALCODE": "189559", "NAME": "Rendezvous Hotel Singapore", "ADDRESS": "9 Bras Basah Road", "INC_CRC": "5A82D73C3206B35E", "FMEL_UPD_D": "07\/24\/2014", "X_ADDR": "2.97803815000e+004", "Y_ADDR": "3.12162321000e+004" }, "geometry": { "type": "Point", "coordinates": [ 29780.381500, 31216.232100 ] } }
,
{ "type": "Feature", "properties": { "OBJECTID": "343", "HYPERLINK": "www.riverslodgesingapore.com", "DESCRIPTIO": "", "POSTALCODE": "287999", "NAME": "Rider's Lodge", "ADDRESS": "108 Turf Club Road", "INC_CRC": "8CB1E2D8D1340AD4", "FMEL_UPD_D": "07\/24\/2014", "X_ADDR": "2.37602198000e+004", "Y_ADDR": "3.51941050000e+004" }, "geometry": { "type": "Point", "coordinates": [ 23760.219800, 35194.105000 ] } }
,
{ "type": "Feature", "properties": { "OBJECTID": "344", "HYPERLINK": "www.riverview.com.sg", "DESCRIPTIO": "", "POSTALCODE": "169629", "NAME": "River View Hotel", "ADDRESS": "382 Havelock Road", "INC_CRC": "45ECC7687C84797B", "FMEL_UPD_D": "07\/24\/2014", "X_ADDR": "2.83656189000e+004", "Y_ADDR": "3.01976136000e+004" }, "geometry": { "type": "Point", "coordinates": [ 28365.619000, 30197.613600 ] } }
,
{ "type": "Feature", "properties": { "OBJECTID": "345", "HYPERLINK": "www.robertsonquayhotel.com.sg", "DESCRIPTIO": "", "POSTALCODE": "239032", "NAME": "Robertson Quay Hotel", "ADDRESS": "15 Merbau Road", "INC_CRC": "CA43B83FD7BBD3E9", "FMEL_UPD_D": "07\/24\/2014", "X_ADDR": "2.89645668000e+004", "Y_ADDR": "3.03963829000e+004" }, "geometry": { "type": "Point", "coordinates": [ 28964.566800, 30396.383000 ] } }
,
{ "type": "Feature", "properties": { "OBJECTID": "346", "HYPERLINK": "www.royalindiahotel.com", "DESCRIPTIO": "", "POSTALCODE": "207667", "NAME": "Royal India Hotel", "ADDRESS": "88 Syed Alwi Road 01-02", "INC_CRC": "CACF980CFC4CC25B", "FMEL_UPD_D": "07\/24\/2014", "X_ADDR": "3.04877786000e+004", "Y_ADDR": "3.23934070000e+004" }, "geometry": { "type": "Point", "coordinates": [ 30487.778700, 32393.407100 ] } }
,
{ "type": "Feature", "properties": { "OBJECTID": "347", "HYPERLINK": "www.royalplaza.com.sg", "DESCRIPTIO": "", "POSTALCODE": "228220", "NAME": "Royal Plaza", "ADDRESS": "25 Scotts Road", "INC_CRC": "48E31CDEF690408D", "FMEL_UPD_D": "07\/24\/2014", "X_ADDR": "2.78792876000e+004", "Y_ADDR": "3.21587449000e+004" }, "geometry": { "type": "Point", "coordinates": [ 27879.287600, 32158.745000 ] } }
,
{ "type": "Feature", "properties": { "OBJECTID": "348", "HYPERLINK": "www.rucksackinn.com", "DESCRIPTIO": "", "POSTALCODE": "058597", "NAME": "Rucksack Inn @ Temple Street", "ADDRESS": "52, 52A, 54, 54A Temple Street", "INC_CRC": "94C6DBC4E577C3AE", "FMEL_UPD_D": "07\/24\/2014", "X_ADDR": "2.91437026000e+004", "Y_ADDR": "2.95273175000e+004" }, "geometry": { "type": "Point", "coordinates": [ 29143.702600, 29527.317500 ] } }
,
{ "type": "Feature", "properties": { "OBJECTID": "349", "HYPERLINK": "www.rucksackinn.com", "DESCRIPTIO": "", "POSTALCODE": "059677", "NAME": "Rucksack Inn 2", "ADDRESS": "38A Hongkong Street", "INC_CRC": "6CCBC5585803AD1C", "FMEL_UPD_D": "07\/24\/2014", "X_ADDR": "2.95583645000e+004", "Y_ADDR": "2.99710645000e+004" }, "geometry": { "type": "Point", "coordinates": [ 29558.364500, 29971.064500 ] } }
,
{ "type": "Feature", "properties": { "OBJECTID": "350", "HYPERLINK": "www.rucksackinn.com", "DESCRIPTIO": "", "POSTALCODE": "338800", "NAME": "Rucksack Inn@Lavender", "ADDRESS": "280 Lavender Street", "INC_CRC": "23EEC7B8223291A3", "FMEL_UPD_D": "07\/24\/2014", "X_ADDR": "3.10045482000e+004", "Y_ADDR": "3.29610626000e+004" }, "geometry": { "type": "Point", "coordinates": [ 31004.548200, 32961.062700 ] } }
,
{ "type": "Feature", "properties": { "OBJECTID": "351", "HYPERLINK": "www.sandpiperhotels.com", "DESCRIPTIO": "", "POSTALCODE": "209391", "NAME": "Sandpiper Hotel", "ADDRESS": "63 Dunlop Street", "INC_CRC": "E166CAF0814C59E9", "FMEL_UPD_D": "07\/24\/2014", "X_ADDR": "3.02566655000e+004", "Y_ADDR": "3.19047129000e+004" }, "geometry": { "type": "Point", "coordinates": [ 30256.665500, 31904.713000 ] } }
,
{ "type": "Feature", "properties": { "OBJECTID": "352", "HYPERLINK": "www.santagrandhotels.com", "DESCRIPTIO": "", "POSTALCODE": "199207", "NAME": "Santa Grand Hotel Bugis", "ADDRESS": "8 Jalan Kubor", "INC_CRC": "92904F1D8FDEF6E8", "FMEL_UPD_D": "07\/24\/2014", "X_ADDR": "3.09059078000e+004", "Y_ADDR": "3.18211620000e+004" }, "geometry": { "type": "Point", "coordinates": [ 30905.907800, 31821.162000 ] } }
,
{ "type": "Feature", "properties": { "OBJECTID": "353", "HYPERLINK": "www.santagrandhotels.com", "DESCRIPTIO": "", "POSTALCODE": "058479", "NAME": "Santa Grand Hotel Chinatown", "ADDRESS": "20 Trengganu Street, #03-01 Royal At Chinatown", "INC_CRC": "47C77A700E9500B6", "FMEL_UPD_D": "07\/24\/2014", "X_ADDR": "2.91775846000e+004", "Y_ADDR": "2.94775889000e+004" }, "geometry": { "type": "Point", "coordinates": [ 29177.584700, 29477.589000 ] } }
,
{ "type": "Feature", "properties": { "OBJECTID": "354", "HYPERLINK": "", "DESCRIPTIO": "", "POSTALCODE": "428877", "NAME": "Santa Grand Hotel East Coast", "ADDRESS": "171 East Coast Road", "INC_CRC": "401E78D44B7C224F", "FMEL_UPD_D": "07\/24\/2014", "X_ADDR": "3.60660163000e+004", "Y_ADDR": "3.21164474000e+004" }, "geometry": { "type": "Point", "coordinates": [ 36066.016300, 32116.447500 ] } }
,
{ "type": "Feature", "properties": { "OBJECTID": "355", "HYPERLINK": "NA", "DESCRIPTIO": "", "POSTALCODE": "058476", "NAME": "Santa Grand Hotel Lai Chun Yuen", "ADDRESS": "25 Trengganu Street", "INC_CRC": "B77F7D8B52217FCC", "FMEL_UPD_D": "07\/24\/2014", "X_ADDR": "2.92082997000e+004", "Y_ADDR": "2.94452727000e+004" }, "geometry": { "type": "Point", "coordinates": [ 29208.299700, 29445.272700 ] } }
,
{ "type": "Feature", "properties": { "OBJECTID": "356", "HYPERLINK": "www.santagrandhotels.com", "DESCRIPTIO": "", "POSTALCODE": "207309", "NAME": "Santa Grand Hotel Little India", "ADDRESS": "3, 5, 7 & 9 Veerasamy Road", "INC_CRC": "47F810A5C3F8189B", "FMEL_UPD_D": "07\/24\/2014", "X_ADDR": "3.01995082000e+004", "Y_ADDR": "3.22366261000e+004" }, "geometry": { "type": "Point", "coordinates": [ 30199.508200, 32236.626200 ] } }
,
{ "type": "Feature", "properties": { "OBJECTID": "357", "HYPERLINK": "www.santagrandhotels.com", "DESCRIPTIO": "", "POSTALCODE": "118769", "NAME": "Santa Grand Hotel West Coast", "ADDRESS": "428 Pasir Panjang Road", "INC_CRC": "DE33AE7F3771BE0A", "FMEL_UPD_D": "07\/24\/2014", "X_ADDR": "2.07962357000e+004", "Y_ADDR": "3.05253885000e+004" }, "geometry": { "type": "Point", "coordinates": [ 20796.235700, 30525.388600 ] } }
,
{ "type": "Feature", "properties": { "OBJECTID": "358", "HYPERLINK": "NA", "DESCRIPTIO": "", "POSTALCODE": "398673", "NAME": "Seng Wah Hotel", "ADDRESS": "15 Lorong 22 Geylang", "INC_CRC": "F5F1306F3A3D69AD", "FMEL_UPD_D": "07\/24\/2014", "X_ADDR": "3.34636111000e+004", "Y_ADDR": "3.27349824000e+004" }, "geometry": { "type": "Point", "coordinates": [ 33463.611100, 32734.982500 ] } }
,
{ "type": "Feature", "properties": { "OBJECTID": "359", "HYPERLINK": "www.shangri-la.com", "DESCRIPTIO": "", "POSTALCODE": "258350", "NAME": "Shangri-La Hotel", "ADDRESS": "22 Orange Grove Road", "INC_CRC": "F414132451D3A5A4", "FMEL_UPD_D": "07\/24\/2014", "X_ADDR": "2.72697318000e+004", "Y_ADDR": "3.26165960000e+004" }, "geometry": { "type": "Point", "coordinates": [ 27269.731800, 32616.596000 ] } }
,
{ "type": "Feature", "properties": { "OBJECTID": "360", "HYPERLINK": "www.shangri-la.com", "DESCRIPTIO": "", "POSTALCODE": "098970", "NAME": "Shangri-La's Rasa Sentosa Resort & Spa, Singapore", "ADDRESS": "101 Siloso Road, Sentosa", "INC_CRC": "DEF8C69E8C5F1D1B", "FMEL_UPD_D": "07\/24\/2014", "X_ADDR": "2.53823158000e+004", "Y_ADDR": "2.67068943000e+004" }, "geometry": { "type": "Point", "coordinates": [ 25382.315900, 26706.894300 ] } }
,
{ "type": "Feature", "properties": { "OBJECTID": "361", "HYPERLINK": "www.sheratonsingapore.com", "DESCRIPTIO": "", "POSTALCODE": "228230", "NAME": "Sheraton Towers Singapore Hotel", "ADDRESS": "39 Scotts Road", "INC_CRC": "794312065CF66B40", "FMEL_UPD_D": "07\/24\/2014", "X_ADDR": "2.83498498000e+004", "Y_ADDR": "3.26943425000e+004" }, "geometry": { "type": "Point", "coordinates": [ 28349.849900, 32694.342600 ] } }
,
{ "type": "Feature", "properties": { "OBJECTID": "362", "HYPERLINK": "www.shophousehostel.com", "DESCRIPTIO": "", "POSTALCODE": "199745", "NAME": "Shophouse The Social Hostel", "ADDRESS": "48 Arab Street", "INC_CRC": "9EC6781F48017D64", "FMEL_UPD_D": "07\/24\/2014", "X_ADDR": "3.09339479000e+004", "Y_ADDR": "3.14598823000e+004" }, "geometry": { "type": "Point", "coordinates": [ 30933.948000, 31459.882300 ] } }
,
{ "type": "Feature", "properties": { "OBJECTID": "363", "HYPERLINK": "www.neworchidhotel.com", "DESCRIPTIO": "", "POSTALCODE": "329777", "NAME": "New Orchid Hotel", "ADDRESS": "347 Balestier Road", "INC_CRC": "25C198AC087C75BB", "FMEL_UPD_D": "07\/24\/2014", "X_ADDR": "2.99721524000e+004", "Y_ADDR": "3.40589274000e+004" }, "geometry": { "type": "Point", "coordinates": [ 29972.152400, 34058.927400 ] } }
,
{ "type": "Feature", "properties": { "OBJECTID": "364", "HYPERLINK": "www.hotelnostalgia.com.sg", "DESCRIPTIO": "", "POSTALCODE": "168727", "NAME": "Nostalgia Hotel", "ADDRESS": "77 Tiong Bahru Road", "INC_CRC": "ED46B548402CDF85", "FMEL_UPD_D": "07\/24\/2014", "X_ADDR": "2.80259128000e+004", "Y_ADDR": "2.97247548000e+004" }, "geometry": { "type": "Point", "coordinates": [ 28025.912900, 29724.754900 ] } }
,
{ "type": "Feature", "properties": { "OBJECTID": "365", "HYPERLINK": "www.novotel.com", "DESCRIPTIO": "", "POSTALCODE": "179031", "NAME": "Novotel Singapore Clarke Quay", "ADDRESS": "177A River Valley Road", "INC_CRC": "60131D3DF4F78678", "FMEL_UPD_D": "07\/24\/2014", "X_ADDR": "2.92540004000e+004", "Y_ADDR": "3.04346647000e+004" }, "geometry": { "type": "Point", "coordinates": [ 29254.000400, 30434.664800 ] } }
,
{ "type": "Feature", "properties": { "OBJECTID": "366", "HYPERLINK": "", "DESCRIPTIO": "", "POSTALCODE": "307470", "NAME": "Oasia Hotel", "ADDRESS": "8 Sinaran Drive", "INC_CRC": "DE9A8939C30732E1", "FMEL_UPD_D": "07\/24\/2014", "X_ADDR": "2.92758090000e+004", "Y_ADDR": "3.35877371000e+004" }, "geometry": { "type": "Point", "coordinates": [ 29275.809000, 33587.737200 ] } }
,
{ "type": "Feature", "properties": { "OBJECTID": "367", "HYPERLINK": "www.onefarrer.com", "DESCRIPTIO": "", "POSTALCODE": "217562", "NAME": "One Farrer Hotel & Spa", "ADDRESS": "1 Farrer Park Station Road", "INC_CRC": "7CC057D702045947", "FMEL_UPD_D": "07\/24\/2014", "X_ADDR": "3.02938017000e+004", "Y_ADDR": "3.27521498000e+004" }, "geometry": { "type": "Point", "coordinates": [ 30293.801800, 32752.149800 ] } }
,
{ "type": "Feature", "properties": { "OBJECTID": "368", "HYPERLINK": "www.one15marina.com", "DESCRIPTIO": "", "POSTALCODE": "098497", "NAME": "One15 Marina Club", "ADDRESS": "11 Cove Drive", "INC_CRC": "F36FE75762E53D5E", "FMEL_UPD_D": "07\/24\/2014", "X_ADDR": "2.86909774000e+004", "Y_ADDR": "2.54208197000e+004" }, "geometry": { "type": "Point", "coordinates": [ 28690.977400, 25420.819700 ] } }
,
{ "type": "Feature", "properties": { "OBJECTID": "369", "HYPERLINK": "www.millenniumhotels.com.sg", "DESCRIPTIO": "", "POSTALCODE": "238879", "NAME": "Orchard Hotel Singapore", "ADDRESS": "442 Orchard Road", "INC_CRC": "2DA530257E7D88F3", "FMEL_UPD_D": "07\/24\/2014", "X_ADDR": "2.74690374000e+004", "Y_ADDR": "3.22162047000e+004" }, "geometry": { "type": "Point", "coordinates": [ 27469.037500, 32216.204700 ] } }
,
{ "type": "Feature", "properties": { "OBJECTID": "370", "HYPERLINK": "www.stayfareast.com.sg", "DESCRIPTIO": "", "POSTALCODE": "247905", "NAME": "Orchard Parade Hotel", "ADDRESS": "1 Tanglin Road", "INC_CRC": "07088FE01F40CAA1", "FMEL_UPD_D": "07\/24\/2014", "X_ADDR": "2.73790927000e+004", "Y_ADDR": "3.20999633000e+004" }, "geometry": { "type": "Point", "coordinates": [ 27379.092800, 32099.963300 ] } }
,
{ "type": "Feature", "properties": { "OBJECTID": "371", "HYPERLINK": "www.orchidhotel.com.sg", "DESCRIPTIO": "", "POSTALCODE": "078867", "NAME": "Orchid Hotel", "ADDRESS": "1 Tras Link", "INC_CRC": "D31876EA352B3ED1", "FMEL_UPD_D": "07\/24\/2014", "X_ADDR": "2.91717549000e+004", "Y_ADDR": "2.88227010000e+004" }, "geometry": { "type": "Point", "coordinates": [ 29171.754900, 28822.701100 ] } }
,
{ "type": "Feature", "properties": { "OBJECTID": "372", "HYPERLINK": "www.oxfordhotel.com.sg", "DESCRIPTIO": "", "POSTALCODE": "188549", "NAME": "Oxford Hotel", "ADDRESS": "218 Queen Street", "INC_CRC": "BF90854BD6EE3615", "FMEL_UPD_D": "07\/24\/2014", "X_ADDR": "3.00590382000e+004", "Y_ADDR": "3.11529206000e+004" }, "geometry": { "type": "Point", "coordinates": [ 30059.038200, 31152.920600 ] } }
,
{ "type": "Feature", "properties": { "OBJECTID": "373", "HYPERLINK": "NA", "DESCRIPTIO": "", "POSTALCODE": "399047", "NAME": "Oxley Blossom Hotel", "ADDRESS": "14 Lorong 10 Geylang", "INC_CRC": "DD37E0EEC712EF50", "FMEL_UPD_D": "07\/24\/2014", "X_ADDR": "3.29215701000e+004", "Y_ADDR": "3.26148060000e+004" }, "geometry": { "type": "Point", "coordinates": [ 32921.570100, 32614.806100 ] } }
,
{ "type": "Feature", "properties": { "OBJECTID": "374", "HYPERLINK": "NA", "DESCRIPTIO": "", "POSTALCODE": "399199", "NAME": "Oxley Hotel", "ADDRESS": "44 Lorong 6 Geylang", "INC_CRC": "F88BF85750F2CFC8", "FMEL_UPD_D": "07\/24\/2014", "X_ADDR": "3.28059390000e+004", "Y_ADDR": "3.24780549000e+004" }, "geometry": { "type": "Point", "coordinates": [ 32805.939000, 32478.055000 ] } }
,
{ "type": "Feature", "properties": { "OBJECTID": "375", "HYPERLINK": "www.viphotel.com.sg", "DESCRIPTIO": "", "POSTALCODE": "259895", "NAME": "VIP Hotel", "ADDRESS": "5 Balmoral Crescent", "INC_CRC": "40AC20DB96B5EAB0", "FMEL_UPD_D": "07\/24\/2014", "X_ADDR": "2.81396118000e+004", "Y_ADDR": "3.31031602000e+004" }, "geometry": { "type": "Point", "coordinates": [ 28139.611800, 33103.160300 ] } }
,
{ "type": "Feature", "properties": { "OBJECTID": "376", "HYPERLINK": "http:\/\/www.starwoodhotels.com\/whotels\/property\/overview\/contact.html?propertyID=3462", "DESCRIPTIO": "", "POSTALCODE": "098374", "NAME": "W Singapore Sentosa Cove Hotel", "ADDRESS": "21 Ocean Way", "INC_CRC": "AC4176BA491633F9", "FMEL_UPD_D": "07\/24\/2014", "X_ADDR": "2.90138339000e+004", "Y_ADDR": "2.54201752000e+004" }, "geometry": { "type": "Point", "coordinates": [ 29013.834000, 25420.175200 ] } }
,
{ "type": "Feature", "properties": { "OBJECTID": "377", "HYPERLINK": "www.wanderlusthotel.com", "DESCRIPTIO": "", "POSTALCODE": "209494", "NAME": "Wanderlust Hotel", "ADDRESS": "2 Dickson Road", "INC_CRC": "7AD7D275E7CEF979", "FMEL_UPD_D": "07\/24\/2014", "X_ADDR": "3.03717061000e+004", "Y_ADDR": "3.19392130000e+004" }, "geometry": { "type": "Point", "coordinates": [ 30371.706200, 31939.213100 ] } }
,
{ "type": "Feature", "properties": { "OBJECTID": "378", "HYPERLINK": "www.wangzhotel.com", "DESCRIPTIO": "", "POSTALCODE": "169040", "NAME": "Wangz Hotel", "ADDRESS": "231 Outram Road", "INC_CRC": "E969D88AB5E5852F", "FMEL_UPD_D": "07\/24\/2014", "X_ADDR": "2.81882467000e+004", "Y_ADDR": "2.96393345000e+004" }, "geometry": { "type": "Point", "coordinates": [ 28188.246700, 29639.334600 ] } }
,
{ "type": "Feature", "properties": { "OBJECTID": "379", "HYPERLINK": "www.winkhostel.com", "DESCRIPTIO": "", "POSTALCODE": "059488", "NAME": "Wink Hostel", "ADDRESS": "8A, 9A & 9B Mosque Street", "INC_CRC": "F958868D2D78F500", "FMEL_UPD_D": "07\/24\/2014", "X_ADDR": "2.92048048000e+004", "Y_ADDR": "2.95980147000e+004" }, "geometry": { "type": "Point", "coordinates": [ 29204.804900, 29598.014800 ] } }
,
{ "type": "Feature", "properties": { "OBJECTID": "380", "HYPERLINK": "www.wokehomehostel.com", "DESCRIPTIO": "", "POSTALCODE": "058691", "NAME": "Woke Home Capsule Hostel", "ADDRESS": "61 South Bridge Road 4th, 5th & 6th Storey", "INC_CRC": "72294CD3959F2DE7", "FMEL_UPD_D": "07\/24\/2014", "X_ADDR": "2.96671306000e+004", "Y_ADDR": "2.99399920000e+004" }, "geometry": { "type": "Point", "coordinates": [ 29667.130700, 29939.992000 ] } }
,
{ "type": "Feature", "properties": { "OBJECTID": "381", "HYPERLINK": "", "DESCRIPTIO": "", "POSTALCODE": "058967", "NAME": "Yes Chinatown Pt. Hotel", "ADDRESS": "64-A\/B, 66-A\/B & 68-A\/B Smith Street", "INC_CRC": "A957D0AD2416481B", "FMEL_UPD_D": "07\/24\/2014", "X_ADDR": "2.90954351000e+004", "Y_ADDR": "2.94975481000e+004" }, "geometry": { "type": "Point", "coordinates": [ 29095.435100, 29497.548100 ] } }
,
{ "type": "Feature", "properties": { "OBJECTID": "382", "HYPERLINK": "NA", "DESCRIPTIO": "", "POSTALCODE": "389504", "NAME": "Yew Lian Hotel", "ADDRESS": "549A\/B Geylang Road", "INC_CRC": "DA8F0049F2177D96", "FMEL_UPD_D": "07\/24\/2014", "X_ADDR": "3.38077467000e+004", "Y_ADDR": "3.29210990000e+004" }, "geometry": { "type": "Point", "coordinates": [ 33807.746700, 32921.099100 ] } }
,
{ "type": "Feature", "properties": { "OBJECTID": "383", "HYPERLINK": "www.yorkhotel.com.sg", "DESCRIPTIO": "", "POSTALCODE": "228516", "NAME": "York Hotel", "ADDRESS": "21 Mount Elizabeth", "INC_CRC": "574CD59D6736FD47", "FMEL_UPD_D": "07\/24\/2014", "X_ADDR": "2.82079939000e+004", "Y_ADDR": "3.21386886000e+004" }, "geometry": { "type": "Point", "coordinates": [ 28207.994000, 32138.688700 ] } }
,
{ "type": "Feature", "properties": { "OBJECTID": "384", "HYPERLINK": "www.zenobia.com.sg", "DESCRIPTIO": "", "POSTALCODE": "207398", "NAME": "Zenobia Hotel", "ADDRESS": "41 Upper Weld Road", "INC_CRC": "33637F24BFB6DC19", "FMEL_UPD_D": "07\/24\/2014", "X_ADDR": "3.02657704000e+004", "Y_ADDR": "3.20578877000e+004" }, "geometry": { "type": "Point", "coordinates": [ 30265.770500, 32057.887700 ] } }

]
}
